[
    {
        "BusinessID": "XsXLVWr1UZWVhKThNvNiaA",
        "Name": "Blue Willow 夜来湘",
        "Address": "40 W 56th St New York, NY 10019",
        "Coordinates": {
            "latitude": 40.76292,
            "longitude": -73.976546
        },
        "NumberOfReviews": 1509,
        "Rating": 4.4,
        "ZipCode": "10019",
        "Cuisine": "chinese",
        "insertedAtTimestamp": "1771451088.5259826"
    },
    {
        "BusinessID": "fupW5th9P2e1lKFosY5Z8Q",
        "Name": "Mountain House",
        "Address": "353 W 46th St New York, NY 10036",
        "Coordinates": {
            "latitude": 40.76080344265001,
            "longitude": -73.98975277116382
        },
        "NumberOfReviews": 85,
        "Rating": 4.6,
        "ZipCode": "10036",
        "Cuisine": "chinese",
        "insertedAtTimestamp": "1771451088.5259826"
    },
    {
        "BusinessID": "h0pRCiJDrCN7tm3VX5tILQ",
        "Name": "CHILI",
        "Address": "13 E 37th St New York, NY 10016",
        "Coordinates": {
            "latitude": 40.75002,
            "longitude": -73.98215
        },
        "NumberOfReviews": 970,
        "Rating": 4.6,
        "ZipCode": "10016",
        "Cuisine": "chinese",
        "insertedAtTimestamp": "1771451088.5259826"
    },
    {
        "BusinessID": "83zDAk03lFXkgImgkLhT9w",
        "Name": "Chi Restaurant & Bar",
        "Address": "492 9th Ave New York, NY 10018",
        "Coordinates": {
            "latitude": 40.75547,
            "longitude": -73.99439
        },
        "NumberOfReviews": 628,
        "Rating": 4.6,
        "ZipCode": "10018",
        "Cuisine": "chinese",
        "insertedAtTimestamp": "1771451088.5259826"
    },
    {
        "BusinessID": "UK1oGbr8GU2rufpnJR4-HQ",
        "Name": "Joe's Home of Soup Dumplings",
        "Address": "7 E 48th St between Fifth and Madison avenues New York, NY 10017",
        "Coordinates": {
            "latitude": 40.75723,
            "longitude": -73.97702
        },
        "NumberOfReviews": 857,
        "Rating": 4.5,
        "ZipCode": "10017",
        "Cuisine": "chinese",
        "insertedAtTimestamp": "1771451088.5259826"
    },
    {
        "BusinessID": "LT0yyLNM84EiJj9DL0rfHA",
        "Name": "Hui Restaurant & Bar",
        "Address": "314 E 70th St New York, NY 10021",
        "Coordinates": {
            "latitude": 40.76701,
            "longitude": -73.95846
        },
        "NumberOfReviews": 353,
        "Rating": 4.3,
        "ZipCode": "10021",
        "Cuisine": "chinese",
        "insertedAtTimestamp": "1771451088.5259826"
    },
    {
        "BusinessID": "HScFap2SwbUlfC-QXVkxFA",
        "Name": "Xi'an Famous Foods",
        "Address": "60 W 45th St New York, NY 10036",
        "Coordinates": {
            "latitude": 40.75632658419739,
            "longitude": -73.98187471577259
        },
        "NumberOfReviews": 1818,
        "Rating": 4.0,
        "ZipCode": "10036",
        "Cuisine": "chinese",
        "insertedAtTimestamp": "1771451088.5259826"
    },
    {
        "BusinessID": "l1nX-f46dmOEmYPoiuLSaw",
        "Name": "Peking Duck House",
        "Address": "236 E 53rd St New York, NY 10022",
        "Coordinates": {
            "latitude": 40.756915,
            "longitude": -73.968108
        },
        "NumberOfReviews": 582,
        "Rating": 3.4,
        "ZipCode": "10022",
        "Cuisine": "chinese",
        "insertedAtTimestamp": "1771451088.5259826"
    },
    {
        "BusinessID": "0vg2Z-HPwkyVVX613j2ysg",
        "Name": "Peng's Noodle Folk",
        "Address": "1016 Lexington Ave New York, NY 10021",
        "Coordinates": {
            "latitude": 40.7711335538802,
            "longitude": -73.9620354269869
        },
        "NumberOfReviews": 616,
        "Rating": 4.5,
        "ZipCode": "10021",
        "Cuisine": "chinese",
        "insertedAtTimestamp": "1771451088.5259826"
    },
    {
        "BusinessID": "bVkjBJlAIwKAj9Aw1KVWjA",
        "Name": "Dim Sum Palace",
        "Address": "334 W 46th St New York, NY 10036",
        "Coordinates": {
            "latitude": 40.76015,
            "longitude": -73.9893699
        },
        "NumberOfReviews": 1919,
        "Rating": 4.1,
        "ZipCode": "10036",
        "Cuisine": "chinese",
        "insertedAtTimestamp": "1771451088.5259826"
    },
    {
        "BusinessID": "R3UNnA8EbjhNWBHS0wJ0VA",
        "Name": "Grand Sichuan Eastern",
        "Address": "1049 2nd Ave New York, NY 10022",
        "Coordinates": {
            "latitude": 40.75831,
            "longitude": -73.96636
        },
        "NumberOfReviews": 296,
        "Rating": 3.3,
        "ZipCode": "10022",
        "Cuisine": "chinese",
        "insertedAtTimestamp": "1771451088.5259826"
    },
    {
        "BusinessID": "oJ6fy4fBv_3WskxH4NfNBg",
        "Name": "Chef Huang Jian Bing & Peking Duck",
        "Address": "635 2nd Ave New York, NY 10016",
        "Coordinates": {
            "latitude": 40.745337,
            "longitude": -73.975813
        },
        "NumberOfReviews": 152,
        "Rating": 4.5,
        "ZipCode": "10016",
        "Cuisine": "chinese",
        "insertedAtTimestamp": "1771451088.5259826"
    },
    {
        "BusinessID": "ZWP7yq9C2bhCcLkMR9BmVw",
        "Name": "Mala Project",
        "Address": "245 East 53rd St New York, NY 10022",
        "Coordinates": {
            "latitude": 40.7571,
            "longitude": -73.9677
        },
        "NumberOfReviews": 155,
        "Rating": 4.3,
        "ZipCode": "10022",
        "Cuisine": "chinese",
        "insertedAtTimestamp": "1771451088.5259826"
    },
    {
        "BusinessID": "WVsPyl-DGRu0O_rQYdIMVQ",
        "Name": "The Best Sichuan",
        "Address": "47 W 39th St New York, NY 10018",
        "Coordinates": {
            "latitude": 40.75277108646358,
            "longitude": -73.9845295
        },
        "NumberOfReviews": 284,
        "Rating": 4.3,
        "ZipCode": "10018",
        "Cuisine": "chinese",
        "insertedAtTimestamp": "1771451088.5259826"
    },
    {
        "BusinessID": "ojbH3wnRu050hRhkmoxRiA",
        "Name": "Han Dynasty",
        "Address": "215 W 85th St New York, NY 10024",
        "Coordinates": {
            "latitude": 40.7875329540021,
            "longitude": -73.97638356686477
        },
        "NumberOfReviews": 782,
        "Rating": 3.8,
        "ZipCode": "10024",
        "Cuisine": "chinese",
        "insertedAtTimestamp": "1771451088.5259826"
    },
    {
        "BusinessID": "A-ert0jDRBfku9ogyW_mEg",
        "Name": "Spice Symphony - Midtown East",
        "Address": "150 E 50th St New York, NY 10022",
        "Coordinates": {
            "latitude": 40.7558937072754,
            "longitude": -73.9715347290039
        },
        "NumberOfReviews": 751,
        "Rating": 4.4,
        "ZipCode": "10022",
        "Cuisine": "chinese",
        "insertedAtTimestamp": "1771451088.5259826"
    },
    {
        "BusinessID": "rZTC2nLbrOUfy9bKvhXnuw",
        "Name": "By Antidote",
        "Address": "30 E 20th St New York, NY 10003",
        "Coordinates": {
            "latitude": 40.738609837812,
            "longitude": -73.9886551
        },
        "NumberOfReviews": 29,
        "Rating": 4.5,
        "ZipCode": "10003",
        "Cuisine": "chinese",
        "insertedAtTimestamp": "1771451088.5259826"
    },
    {
        "BusinessID": "BPErPpKSNluwcjbKRgze3w",
        "Name": "Xi'an Famous Foods",
        "Address": "328 E 78th St New York, NY 10075",
        "Coordinates": {
            "latitude": 40.77197,
            "longitude": -73.95452
        },
        "NumberOfReviews": 731,
        "Rating": 4.3,
        "ZipCode": "10075",
        "Cuisine": "chinese",
        "insertedAtTimestamp": "1771451088.5259826"
    },
    {
        "BusinessID": "oowNI_aUmGEFa_VW8BFgRg",
        "Name": "Tri Dim Shanghai",
        "Address": "1378 3rd Ave New York, NY 10075",
        "Coordinates": {
            "latitude": 40.773951,
            "longitude": -73.957927
        },
        "NumberOfReviews": 622,
        "Rating": 4.0,
        "ZipCode": "10075",
        "Cuisine": "chinese",
        "insertedAtTimestamp": "1771451088.5259826"
    },
    {
        "BusinessID": "0CjK3esfpFcxIopebzjFxA",
        "Name": "Joe's Shanghai",
        "Address": "46 Bowery St New York, NY 10013",
        "Coordinates": {
            "latitude": 40.7156608,
            "longitude": -73.9967012
        },
        "NumberOfReviews": 7648,
        "Rating": 3.8,
        "ZipCode": "10013",
        "Cuisine": "chinese",
        "insertedAtTimestamp": "1771451088.5259826"
    },
    {
        "BusinessID": "xq0cX_DgxiJMXwhmEl9kUA",
        "Name": "Cafe China",
        "Address": "59 W 37th St New York, NY 10018",
        "Coordinates": {
            "latitude": 40.75158498670787,
            "longitude": -73.98582411501887
        },
        "NumberOfReviews": 2097,
        "Rating": 3.9,
        "ZipCode": "10018",
        "Cuisine": "chinese",
        "insertedAtTimestamp": "1771451088.5259826"
    },
    {
        "BusinessID": "wDuf4Qz9qsC62amLZgWNJQ",
        "Name": "Little Alley",
        "Address": "550 3rd Ave New York, NY 10016",
        "Coordinates": {
            "latitude": 40.74744,
            "longitude": -73.97728
        },
        "NumberOfReviews": 613,
        "Rating": 4.0,
        "ZipCode": "10016",
        "Cuisine": "chinese",
        "insertedAtTimestamp": "1771451088.5259826"
    },
    {
        "BusinessID": "Y5TqZhNxPC6BWnM7zsCSjA",
        "Name": "Din Tai Fung",
        "Address": "1633 Broadway New York, NY 10022",
        "Coordinates": {
            "latitude": 40.7621134737354,
            "longitude": -73.9840022349182
        },
        "NumberOfReviews": 2482,
        "Rating": 4.3,
        "ZipCode": "10022",
        "Cuisine": "chinese",
        "insertedAtTimestamp": "1771451088.5259826"
    },
    {
        "BusinessID": "jc7lVTvmYMIK5RNpENtS6w",
        "Name": "Szechuan Mountain House",
        "Address": "23 St Marks Pl New York, NY 10003",
        "Coordinates": {
            "latitude": 40.72911,
            "longitude": -73.98858
        },
        "NumberOfReviews": 892,
        "Rating": 4.3,
        "ZipCode": "10003",
        "Cuisine": "chinese",
        "insertedAtTimestamp": "1771451088.5259826"
    },
    {
        "BusinessID": "Ece_DRuD1yQjRPJBAebRpw",
        "Name": "Kung Fu Little Steamed Buns Ramen",
        "Address": "146 E 55th St New York, NY 10022",
        "Coordinates": {
            "latitude": 40.7592514705491,
            "longitude": -73.9694294705987
        },
        "NumberOfReviews": 438,
        "Rating": 3.4,
        "ZipCode": "10022",
        "Cuisine": "chinese",
        "insertedAtTimestamp": "1771451088.5259826"
    },
    {
        "BusinessID": "qrncvjkiKN5Z-JC06ygy6A",
        "Name": "Hutong",
        "Address": "731 Lexington Ave New York, NY 10022",
        "Coordinates": {
            "latitude": 40.761551,
            "longitude": -73.967443
        },
        "NumberOfReviews": 729,
        "Rating": 3.7,
        "ZipCode": "10022",
        "Cuisine": "chinese",
        "insertedAtTimestamp": "1771451088.5259826"
    },
    {
        "BusinessID": "sRWRA4dcN_NR1JGpuRVouA",
        "Name": "Nan Xiang Soup Dumplings - Koreatown",
        "Address": "24 W 33rd St New York, NY 10001",
        "Coordinates": {
            "latitude": 40.7482487159912,
            "longitude": -73.98648243619347
        },
        "NumberOfReviews": 1512,
        "Rating": 4.6,
        "ZipCode": "10001",
        "Cuisine": "chinese",
        "insertedAtTimestamp": "1771451088.5259826"
    },
    {
        "BusinessID": "mUl0wtO7tPkBocuJqZ-7Dw",
        "Name": "Dun Huang",
        "Address": "320 Lexington Ave New York, NY 10016",
        "Coordinates": {
            "latitude": 40.749246028789145,
            "longitude": -73.97784435752833
        },
        "NumberOfReviews": 385,
        "Rating": 4.3,
        "ZipCode": "10016",
        "Cuisine": "chinese",
        "insertedAtTimestamp": "1771451088.5259826"
    },
    {
        "BusinessID": "1dFOF1HPaThSCsdiqR7DrA",
        "Name": "Land of Plenty",
        "Address": "204E 58th St New York, NY 10022",
        "Coordinates": {
            "latitude": 40.760590326928856,
            "longitude": -73.96659593005877
        },
        "NumberOfReviews": 390,
        "Rating": 3.7,
        "ZipCode": "10022",
        "Cuisine": "chinese",
        "insertedAtTimestamp": "1771451088.5259826"
    },
    {
        "BusinessID": "wfhMIiMh2A2psCGONOVSlg",
        "Name": "Han Dynasty",
        "Address": "90 3rd Ave New York, NY 10003",
        "Coordinates": {
            "latitude": 40.732072,
            "longitude": -73.988074
        },
        "NumberOfReviews": 1438,
        "Rating": 3.9,
        "ZipCode": "10003",
        "Cuisine": "chinese",
        "insertedAtTimestamp": "1771451088.5259826"
    },
    {
        "BusinessID": "FXhSEZfIqjMZh4hR0_8jMQ",
        "Name": "China Xiang 中国湘",
        "Address": "360 W 42nd Street New York, NY 10036",
        "Coordinates": {
            "latitude": 40.7582902125633,
            "longitude": -73.9925113993899
        },
        "NumberOfReviews": 592,
        "Rating": 3.8,
        "ZipCode": "10036",
        "Cuisine": "chinese",
        "insertedAtTimestamp": "1771451088.5259826"
    },
    {
        "BusinessID": "qVrbv-z4dDtAVUjLtSgJqg",
        "Name": "Shoo Loong Kan",
        "Address": "22 E 13th St New York, NY 10003",
        "Coordinates": {
            "latitude": 40.734743,
            "longitude": -73.99311
        },
        "NumberOfReviews": 36,
        "Rating": 4.6,
        "ZipCode": "10003",
        "Cuisine": "chinese",
        "insertedAtTimestamp": "1771451088.5259826"
    },
    {
        "BusinessID": "lSuyHj3cCXbKjcZaakF9lQ",
        "Name": "Dimsum Garden",
        "Address": "1068 2nd Ave New York, NY 10022",
        "Coordinates": {
            "latitude": 40.758701,
            "longitude": -73.965463
        },
        "NumberOfReviews": 74,
        "Rating": 4.1,
        "ZipCode": "10022",
        "Cuisine": "chinese",
        "insertedAtTimestamp": "1771451088.5259826"
    },
    {
        "BusinessID": "OvdCm3j_5HzItolfvwrEUA",
        "Name": "Lilli & Loo",
        "Address": "785 Lexington Ave New York, NY 10065",
        "Coordinates": {
            "latitude": 40.76357,
            "longitude": -73.96703
        },
        "NumberOfReviews": 553,
        "Rating": 3.7,
        "ZipCode": "10065",
        "Cuisine": "chinese",
        "insertedAtTimestamp": "1771451088.5259826"
    },
    {
        "BusinessID": "kwqOmEwWJ0D9PyCdFGE3-g",
        "Name": "Xi'an Famous Foods",
        "Address": "309 Amsterdam Ave New York, NY 10023",
        "Coordinates": {
            "latitude": 40.780145,
            "longitude": -73.980266
        },
        "NumberOfReviews": 767,
        "Rating": 4.0,
        "ZipCode": "10023",
        "Cuisine": "chinese",
        "insertedAtTimestamp": "1771451088.5259826"
    },
    {
        "BusinessID": "6dVXDdgzDEVt4DvHzpWo9w",
        "Name": "Tang Pavilion",
        "Address": "65 W 55th St New York, NY 10019",
        "Coordinates": {
            "latitude": 40.76275,
            "longitude": -73.97725
        },
        "NumberOfReviews": 376,
        "Rating": 3.5,
        "ZipCode": "10019",
        "Cuisine": "chinese",
        "insertedAtTimestamp": "1771451088.5259826"
    },
    {
        "BusinessID": "0dDCDQz7DrKkSvu9h2hcQw",
        "Name": "Chow House 德悦轩",
        "Address": "181 Bleecker St New York, NY 10012",
        "Coordinates": {
            "latitude": 40.72908,
            "longitude": -74.00078
        },
        "NumberOfReviews": 830,
        "Rating": 4.4,
        "ZipCode": "10012",
        "Cuisine": "chinese",
        "insertedAtTimestamp": "1771451088.5259826"
    },
    {
        "BusinessID": "lynQoI3w_pzYfHGeuUU-Qg",
        "Name": "Shu Jiao Fu Zhou",
        "Address": "295 Grand St New York, NY 10002",
        "Coordinates": {
            "latitude": 40.7174109,
            "longitude": -73.99208827387251
        },
        "NumberOfReviews": 1692,
        "Rating": 4.5,
        "ZipCode": "10002",
        "Cuisine": "chinese",
        "insertedAtTimestamp": "1771451088.5259826"
    },
    {
        "BusinessID": "X8ZS-dgiMIJvhwf9SaDnjw",
        "Name": "Wah Fung No 1",
        "Address": "79 Chrystie St New York, NY 10002",
        "Coordinates": {
            "latitude": 40.71735,
            "longitude": -73.99457
        },
        "NumberOfReviews": 2402,
        "Rating": 4.4,
        "ZipCode": "10002",
        "Cuisine": "chinese",
        "insertedAtTimestamp": "1771451088.5259826"
    },
    {
        "BusinessID": "m3gXIgSxJapyDaSPKBjfYw",
        "Name": "Shanghai Dumplings Fusion",
        "Address": "158 W 72nd St New York, NY 10023",
        "Coordinates": {
            "latitude": 40.77802703856498,
            "longitude": -73.9809994
        },
        "NumberOfReviews": 36,
        "Rating": 4.3,
        "ZipCode": "10023",
        "Cuisine": "chinese",
        "insertedAtTimestamp": "1771451088.5259826"
    },
    {
        "BusinessID": "YDZX2bJ1IyV0lunBYqbb4w",
        "Name": "New Chinatown  Asian Cuisine/ Bar",
        "Address": "1650 3rd Ave New York, NY 10128",
        "Coordinates": {
            "latitude": 40.782945,
            "longitude": -73.95132
        },
        "NumberOfReviews": 187,
        "Rating": 4.5,
        "ZipCode": "10128",
        "Cuisine": "chinese",
        "insertedAtTimestamp": "1771451089.9532852"
    },
    {
        "BusinessID": "qGgQMVExGERqGhZNDM2ROg",
        "Name": "Wu Liang Ye",
        "Address": "36 W 48th St New York, NY 10036",
        "Coordinates": {
            "latitude": 40.75781,
            "longitude": -73.97994
        },
        "NumberOfReviews": 604,
        "Rating": 3.5,
        "ZipCode": "10036",
        "Cuisine": "chinese",
        "insertedAtTimestamp": "1771451089.9532852"
    },
    {
        "BusinessID": "Qwd4Tv-CqgO2Yl9zZgkKOQ",
        "Name": "Shun Lee Palace",
        "Address": "155 E 55th St New York, NY 10022",
        "Coordinates": {
            "latitude": 40.75930553761922,
            "longitude": -73.96903665624986
        },
        "NumberOfReviews": 380,
        "Rating": 3.1,
        "ZipCode": "10022",
        "Cuisine": "chinese",
        "insertedAtTimestamp": "1771451089.9532852"
    },
    {
        "BusinessID": "NoCx_HESUSbMgaelj_hR6Q",
        "Name": "Dragon Family",
        "Address": "1109 1st Ave New York, NY 10065",
        "Coordinates": {
            "latitude": 40.76079262922939,
            "longitude": -73.96134552331335
        },
        "NumberOfReviews": 5,
        "Rating": 3.6,
        "ZipCode": "10065",
        "Cuisine": "chinese",
        "insertedAtTimestamp": "1771451089.9532852"
    },
    {
        "BusinessID": "ycaOcLWT4u4IMHljEoGdFw",
        "Name": "Yumpling",
        "Address": "16 E 52nd St New York, NY 10022",
        "Coordinates": {
            "latitude": 40.75919772971987,
            "longitude": -73.9754350148354
        },
        "NumberOfReviews": 58,
        "Rating": 4.7,
        "ZipCode": "10022",
        "Cuisine": "chinese",
        "insertedAtTimestamp": "1771451089.9532852"
    },
    {
        "BusinessID": "GuzlMBKNoClNx5I1-x-DDg",
        "Name": "53 NYC",
        "Address": "53 W 53rd St New York, NY 10019",
        "Coordinates": {
            "latitude": 40.76179318437133,
            "longitude": -73.9780863
        },
        "NumberOfReviews": 231,
        "Rating": 4.1,
        "ZipCode": "10019",
        "Cuisine": "chinese",
        "insertedAtTimestamp": "1771451089.9532852"
    },
    {
        "BusinessID": "W1VceP79ofBePm3izXJC4A",
        "Name": "Wok In Duane",
        "Address": "181 Duane St New York, NY 10013",
        "Coordinates": {
            "latitude": 40.7175611,
            "longitude": -74.01016130539362
        },
        "NumberOfReviews": 27,
        "Rating": 4.9,
        "ZipCode": "10013",
        "Cuisine": "chinese",
        "insertedAtTimestamp": "1771451089.9532852"
    },
    {
        "BusinessID": "s5JNxy0eAFgxS2Poi73ODw",
        "Name": "Mala Project",
        "Address": "41 W 46th St New York, NY 10036",
        "Coordinates": {
            "latitude": 40.756899,
            "longitude": -73.980586
        },
        "NumberOfReviews": 654,
        "Rating": 4.0,
        "ZipCode": "10036",
        "Cuisine": "chinese",
        "insertedAtTimestamp": "1771451089.9532852"
    },
    {
        "BusinessID": "sBCJYLPNJuagg-aJ3Y_ozQ",
        "Name": "Cheli",
        "Address": "19 St Marks Pl New York, NY 10003",
        "Coordinates": {
            "latitude": 40.72919825690721,
            "longitude": -73.98871113812073
        },
        "NumberOfReviews": 479,
        "Rating": 4.2,
        "ZipCode": "10003",
        "Cuisine": "chinese",
        "insertedAtTimestamp": "1771451089.9532852"
    },
    {
        "BusinessID": "KOg9x0nxrgn2EmfUpI10Fw",
        "Name": "Yingtao",
        "Address": "805 9th Ave New York, NY 10019",
        "Coordinates": {
            "latitude": 40.765730411583846,
            "longitude": -73.98772763947743
        },
        "NumberOfReviews": 63,
        "Rating": 4.3,
        "ZipCode": "10019",
        "Cuisine": "chinese",
        "insertedAtTimestamp": "1771451089.9532852"
    },
    {
        "BusinessID": "nI1UYDCYUTt23TpGxqnLKg",
        "Name": "Buddakan",
        "Address": "75 9th Ave New York, NY 10011",
        "Coordinates": {
            "latitude": 40.74221225340447,
            "longitude": -74.00469414889812
        },
        "NumberOfReviews": 4898,
        "Rating": 4.1,
        "ZipCode": "10011",
        "Cuisine": "chinese",
        "insertedAtTimestamp": "1771451089.9532852"
    },
    {
        "BusinessID": "pCfGgX0WxGASGM4-Yhr2Pw",
        "Name": "Hao Noodle Chelsea",
        "Address": "343 W 14th St New York, NY 10014",
        "Coordinates": {
            "latitude": 40.7408,
            "longitude": -74.00429
        },
        "NumberOfReviews": 747,
        "Rating": 4.3,
        "ZipCode": "10014",
        "Cuisine": "chinese",
        "insertedAtTimestamp": "1771451089.9532852"
    },
    {
        "BusinessID": "TU_BU9HLflYI2xlyqVQdRA",
        "Name": "TAO Uptown",
        "Address": "42 E 58th St New York City, NY 10022",
        "Coordinates": {
            "latitude": 40.762633905485515,
            "longitude": -73.97143037115184
        },
        "NumberOfReviews": 3140,
        "Rating": 3.6,
        "ZipCode": "10022",
        "Cuisine": "chinese",
        "insertedAtTimestamp": "1771451089.9532852"
    },
    {
        "BusinessID": "-lKKdp0XYVJY2DWL-ZSwtQ",
        "Name": "Pac Rim",
        "Address": "308 E 49th St New York, NY 10017",
        "Coordinates": {
            "latitude": 40.75388176236215,
            "longitude": -73.96847991496885
        },
        "NumberOfReviews": 37,
        "Rating": 4.2,
        "ZipCode": "10017",
        "Cuisine": "chinese",
        "insertedAtTimestamp": "1771451089.9532852"
    },
    {
        "BusinessID": "_fTRTishY3G5dLPLYGCVAw",
        "Name": "Tipsy Shanghai",
        "Address": "594 3rd Ave New York, NY 10016",
        "Coordinates": {
            "latitude": 40.74879,
            "longitude": -73.9761
        },
        "NumberOfReviews": 143,
        "Rating": 4.1,
        "ZipCode": "10016",
        "Cuisine": "chinese",
        "insertedAtTimestamp": "1771451089.9532852"
    },
    {
        "BusinessID": "HR_a2QSA_KJZIakufAJUmg",
        "Name": "Szechuan Gourmet",
        "Address": "21 W 39th St New York, NY 10018",
        "Coordinates": {
            "latitude": 40.752347,
            "longitude": -73.983559
        },
        "NumberOfReviews": 112,
        "Rating": 4.2,
        "ZipCode": "10018",
        "Cuisine": "chinese",
        "insertedAtTimestamp": "1771451089.9532852"
    },
    {
        "BusinessID": "4FD0TAxe70nb3ngk3sXF9Q",
        "Name": "Uluh",
        "Address": "152 2nd Ave Ste A New York, NY 10003",
        "Coordinates": {
            "latitude": 40.729354,
            "longitude": -73.98665
        },
        "NumberOfReviews": 1127,
        "Rating": 4.4,
        "ZipCode": "10003",
        "Cuisine": "chinese",
        "insertedAtTimestamp": "1771451089.9532852"
    },
    {
        "BusinessID": "NN3mOWF5e_pnR1ArqM2bHQ",
        "Name": "Obao",
        "Address": "647 9th Ave New York, NY 10036",
        "Coordinates": {
            "latitude": 40.7606544,
            "longitude": -73.991332
        },
        "NumberOfReviews": 4522,
        "Rating": 4.0,
        "ZipCode": "10036",
        "Cuisine": "chinese",
        "insertedAtTimestamp": "1771451089.9532852"
    },
    {
        "BusinessID": "QlFOpTPMEIQDjrtvs_zKxg",
        "Name": "Blue Blossom",
        "Address": "108 W 39th St New York, NY 10018",
        "Coordinates": {
            "latitude": 40.75304269205817,
            "longitude": -73.98601224110455
        },
        "NumberOfReviews": 92,
        "Rating": 4.3,
        "ZipCode": "10018",
        "Cuisine": "chinese",
        "insertedAtTimestamp": "1771451089.9532852"
    },
    {
        "BusinessID": "8plXW6ZQI1awPu1scms3jQ",
        "Name": "Silky Kitchen",
        "Address": "138 W 46th St New York, NY 10036",
        "Coordinates": {
            "latitude": 40.757889,
            "longitude": -73.984009
        },
        "NumberOfReviews": 122,
        "Rating": 4.4,
        "ZipCode": "10036",
        "Cuisine": "chinese",
        "insertedAtTimestamp": "1771451089.9532852"
    },
    {
        "BusinessID": "KWx3SvW16hfSiFOAd4WzTA",
        "Name": "1915 Lanzhou Hand Pulled Noodles",
        "Address": "207 E 26th St New York, NY 10016",
        "Coordinates": {
            "latitude": 40.74052419050578,
            "longitude": -73.98091535792065
        },
        "NumberOfReviews": 170,
        "Rating": 4.5,
        "ZipCode": "10016",
        "Cuisine": "chinese",
        "insertedAtTimestamp": "1771451089.9532852"
    },
    {
        "BusinessID": "1XgqwPF8JN-OVYDaKmO6SQ",
        "Name": "Gulp",
        "Address": "42-45 27th St Long Island City, NY 11101",
        "Coordinates": {
            "latitude": 40.74898633252658,
            "longitude": -73.94065112701773
        },
        "NumberOfReviews": 464,
        "Rating": 4.8,
        "ZipCode": "11101",
        "Cuisine": "chinese",
        "insertedAtTimestamp": "1771451089.9532852"
    },
    {
        "BusinessID": "mK-Mnbf5bCk5Of6_yZt3jg",
        "Name": "Floral 繁花",
        "Address": "63 Cooper Sq New York, NY 10003",
        "Coordinates": {
            "latitude": 40.72907,
            "longitude": -73.98991
        },
        "NumberOfReviews": 17,
        "Rating": 4.0,
        "ZipCode": "10003",
        "Cuisine": "chinese",
        "insertedAtTimestamp": "1771451089.9532852"
    },
    {
        "BusinessID": "LNx49p5HYVc01rKnkfKkFg",
        "Name": "Super Taste",
        "Address": "1502 1st Ave New York, NY 10075",
        "Coordinates": {
            "latitude": 40.771858,
            "longitude": -73.952783
        },
        "NumberOfReviews": 84,
        "Rating": 4.5,
        "ZipCode": "10075",
        "Cuisine": "chinese",
        "insertedAtTimestamp": "1771451089.9532852"
    },
    {
        "BusinessID": "croh2zWlbPyCQTNS11klcg",
        "Name": "China River 川聚院",
        "Address": "258 W 44th St New York, NY 10036",
        "Coordinates": {
            "latitude": 40.75821,
            "longitude": -73.98833
        },
        "NumberOfReviews": 320,
        "Rating": 3.9,
        "ZipCode": "10036",
        "Cuisine": "chinese",
        "insertedAtTimestamp": "1771451089.9532852"
    },
    {
        "BusinessID": "gJXNSJ9VXTuCFmp_Kl9TVQ",
        "Name": "Shanghai",
        "Address": "1388 2nd Ave New York, NY 10021",
        "Coordinates": {
            "latitude": 40.768291,
            "longitude": -73.958381
        },
        "NumberOfReviews": 161,
        "Rating": 3.8,
        "ZipCode": "10021",
        "Cuisine": "chinese",
        "insertedAtTimestamp": "1771451089.9532852"
    },
    {
        "BusinessID": "6YehBdKHcLDsvaewhcEjFQ",
        "Name": "Hey Yuet",
        "Address": "251 W 26th St New York, NY 10001",
        "Coordinates": {
            "latitude": 40.747241,
            "longitude": -73.996441
        },
        "NumberOfReviews": 337,
        "Rating": 4.4,
        "ZipCode": "10001",
        "Cuisine": "chinese",
        "insertedAtTimestamp": "1771451089.9532852"
    },
    {
        "BusinessID": "oe8GEFE4QLFAKt87y7zcgA",
        "Name": "Very Fresh Noodles",
        "Address": "409 W 15th St New York, NY 10011",
        "Coordinates": {
            "latitude": 40.742143,
            "longitude": -74.005725
        },
        "NumberOfReviews": 1735,
        "Rating": 4.4,
        "ZipCode": "10011",
        "Cuisine": "chinese",
        "insertedAtTimestamp": "1771451089.9532852"
    },
    {
        "BusinessID": "FcQA5tV8wlz6jg_UK_s7Hw",
        "Name": "Simply Noodles",
        "Address": "267  Amsterdam Ave New York, NY 10023",
        "Coordinates": {
            "latitude": 40.7788403,
            "longitude": -73.98118199999999
        },
        "NumberOfReviews": 209,
        "Rating": 4.4,
        "ZipCode": "10023",
        "Cuisine": "chinese",
        "insertedAtTimestamp": "1771451089.9532852"
    },
    {
        "BusinessID": "-gDpARzzNwy5PoEEYYF4MA",
        "Name": "Blue Peak Villa",
        "Address": "200 Allen St New York, NY 10002",
        "Coordinates": {
            "latitude": 40.722564,
            "longitude": -73.988477
        },
        "NumberOfReviews": 12,
        "Rating": 4.6,
        "ZipCode": "10002",
        "Cuisine": "chinese",
        "insertedAtTimestamp": "1771451089.9532852"
    },
    {
        "BusinessID": "3Qhu8JvfkMVLjR-Yh3XHsw",
        "Name": "Elephant Ear Thai Restaurant",
        "Address": "690 9th Ave New York, NY 10036",
        "Coordinates": {
            "latitude": 40.761755,
            "longitude": -73.989803
        },
        "NumberOfReviews": 174,
        "Rating": 4.3,
        "ZipCode": "10036",
        "Cuisine": "chinese",
        "insertedAtTimestamp": "1771451089.9532852"
    },
    {
        "BusinessID": "Irl5EDZ-wBbb6AsxCjrbQg",
        "Name": "Grandma's Home",
        "Address": "56 W 22nd St New York, NY 10010",
        "Coordinates": {
            "latitude": 40.74185184042206,
            "longitude": -73.9928814
        },
        "NumberOfReviews": 145,
        "Rating": 4.2,
        "ZipCode": "10010",
        "Cuisine": "chinese",
        "insertedAtTimestamp": "1771451089.9532852"
    },
    {
        "BusinessID": "B7bxdtvLYR7Nmex4AIFd4w",
        "Name": "RedFarm",
        "Address": "2170 Broadway New York, NY 10024",
        "Coordinates": {
            "latitude": 40.782051,
            "longitude": -73.980415
        },
        "NumberOfReviews": 846,
        "Rating": 3.6,
        "ZipCode": "10024",
        "Cuisine": "chinese",
        "insertedAtTimestamp": "1771451089.9532852"
    },
    {
        "BusinessID": "H1jops1lmuhrq9lP7lEGJQ",
        "Name": "Flor De Mayo",
        "Address": "484 Amsterdam Ave New York, NY 10024",
        "Coordinates": {
            "latitude": 40.78609,
            "longitude": -73.97658
        },
        "NumberOfReviews": 1410,
        "Rating": 4.0,
        "ZipCode": "10024",
        "Cuisine": "chinese",
        "insertedAtTimestamp": "1771451089.9532852"
    },
    {
        "BusinessID": "pVlKM-vyOJxfoJ9fwMDDfA",
        "Name": "Sky Pavilion",
        "Address": "325 W 42nd St New York, NY 10036",
        "Coordinates": {
            "latitude": 40.757968,
            "longitude": -73.990862
        },
        "NumberOfReviews": 106,
        "Rating": 4.7,
        "ZipCode": "10036",
        "Cuisine": "chinese",
        "insertedAtTimestamp": "1771451089.9532852"
    },
    {
        "BusinessID": "SR3w3XVCgpUSwDk4sZzwZQ",
        "Name": "Nai Brother",
        "Address": "27-17 42nd Rd Long Island City, NY 11101",
        "Coordinates": {
            "latitude": 40.749254916155174,
            "longitude": -73.9398239
        },
        "NumberOfReviews": 124,
        "Rating": 4.7,
        "ZipCode": "11101",
        "Cuisine": "chinese",
        "insertedAtTimestamp": "1771451089.9532852"
    },
    {
        "BusinessID": "TzhAlljC_843JO7UDDUIaQ",
        "Name": "The Tang - Upper West Side",
        "Address": "920 Amsterdam Ave New York, NY 10025",
        "Coordinates": {
            "latitude": 40.80006,
            "longitude": -73.96639
        },
        "NumberOfReviews": 354,
        "Rating": 4.2,
        "ZipCode": "10025",
        "Cuisine": "chinese",
        "insertedAtTimestamp": "1771451089.9532852"
    },
    {
        "BusinessID": "XmA6dG--QxGgfsdmWrL3sw",
        "Name": "Dong Bei",
        "Address": "367 W 36th St New York, NY 10018",
        "Coordinates": {
            "latitude": 40.7546,
            "longitude": -73.99493
        },
        "NumberOfReviews": 36,
        "Rating": 4.1,
        "ZipCode": "10018",
        "Cuisine": "chinese",
        "insertedAtTimestamp": "1771451089.9532852"
    },
    {
        "BusinessID": "M-odQWSEfsR2mVEw7nKG-g",
        "Name": "Nyonya",
        "Address": "199 Grand St New York, NY 10013",
        "Coordinates": {
            "latitude": 40.719116974367,
            "longitude": -73.9968322948353
        },
        "NumberOfReviews": 2556,
        "Rating": 3.9,
        "ZipCode": "10013",
        "Cuisine": "chinese",
        "insertedAtTimestamp": "1771451089.9532852"
    },
    {
        "BusinessID": "iu1TLnNH13AdBDg_LmnuHQ",
        "Name": "Lunar",
        "Address": "12 E 37th St New York, NY 10016",
        "Coordinates": {
            "latitude": 40.74981466503257,
            "longitude": -73.98231633276964
        },
        "NumberOfReviews": 84,
        "Rating": 4.2,
        "ZipCode": "10016",
        "Cuisine": "chinese",
        "insertedAtTimestamp": "1771451089.9532852"
    },
    {
        "BusinessID": "rGUv1nNmsvy2jOlZtbaOpw",
        "Name": "Dimsum Garden",
        "Address": "338 Lexington Ave New York, NY 10016",
        "Coordinates": {
            "latitude": 40.74979,
            "longitude": -73.97743
        },
        "NumberOfReviews": 187,
        "Rating": 4.2,
        "ZipCode": "10016",
        "Cuisine": "chinese",
        "insertedAtTimestamp": "1771451091.1662624"
    },
    {
        "BusinessID": "wyjtGsW5NeVDknGQWnIPAQ",
        "Name": "wagamama - midtown",
        "Address": "100 W 55th St New York, NY 10019",
        "Coordinates": {
            "latitude": 40.76316041296893,
            "longitude": -73.97885444091449
        },
        "NumberOfReviews": 527,
        "Rating": 4.3,
        "ZipCode": "10019",
        "Cuisine": "chinese",
        "insertedAtTimestamp": "1771451091.1662624"
    },
    {
        "BusinessID": "-lgNzAEyFr8LCTuBTWnAMg",
        "Name": "Dim Sum Palace",
        "Address": "28 W 56th St New York, NY 10019",
        "Coordinates": {
            "latitude": 40.762765496672955,
            "longitude": -73.97609185077448
        },
        "NumberOfReviews": 540,
        "Rating": 4.0,
        "ZipCode": "10019",
        "Cuisine": "chinese",
        "insertedAtTimestamp": "1771451091.1662624"
    },
    {
        "BusinessID": "LVkBYW-FNaZ2h-0zB8-vzA",
        "Name": "Jiang's Kitchen",
        "Address": "65 St Marks Pl New York, NY 10003",
        "Coordinates": {
            "latitude": 40.72808,
            "longitude": -73.98615
        },
        "NumberOfReviews": 121,
        "Rating": 4.4,
        "ZipCode": "10003",
        "Cuisine": "chinese",
        "insertedAtTimestamp": "1771451091.1662624"
    },
    {
        "BusinessID": "XaEFFUabnbH8ZF7ccmSAlQ",
        "Name": "South Of The Clouds",
        "Address": "16 W 8th St New York, NY 10011",
        "Coordinates": {
            "latitude": 40.73264,
            "longitude": -73.99752
        },
        "NumberOfReviews": 281,
        "Rating": 3.9,
        "ZipCode": "10011",
        "Cuisine": "chinese",
        "insertedAtTimestamp": "1771451091.1662624"
    },
    {
        "BusinessID": "E_Rxnmim6J2ECFtU0QGlsQ",
        "Name": "Uncle Lou 快樂人",
        "Address": "73 Mulberry St New York, NY 10013",
        "Coordinates": {
            "latitude": 40.716284,
            "longitude": -73.99939
        },
        "NumberOfReviews": 654,
        "Rating": 4.2,
        "ZipCode": "10013",
        "Cuisine": "chinese",
        "insertedAtTimestamp": "1771451091.1662624"
    },
    {
        "BusinessID": "FcXsiSJbk2ZnHyFJMkMK3g",
        "Name": "Mala Kitchen",
        "Address": "7 E 47th St New York, NY 10017",
        "Coordinates": {
            "latitude": 40.756545,
            "longitude": -73.977673
        },
        "NumberOfReviews": 76,
        "Rating": 4.1,
        "ZipCode": "10017",
        "Cuisine": "chinese",
        "insertedAtTimestamp": "1771451091.1662624"
    },
    {
        "BusinessID": "w4aW7geanPgny-dxsDNkMA",
        "Name": "Moon Kee",
        "Address": "2642 Broadway New York, NY 10025",
        "Coordinates": {
            "latitude": 40.7973721,
            "longitude": -73.9694833
        },
        "NumberOfReviews": 114,
        "Rating": 4.1,
        "ZipCode": "10025",
        "Cuisine": "chinese",
        "insertedAtTimestamp": "1771451091.1662624"
    },
    {
        "BusinessID": "WRRs3smfm6rHP5k4Slzr3w",
        "Name": "Hop Won Restaurant",
        "Address": "139 E 45th St New York, NY 10017",
        "Coordinates": {
            "latitude": 40.75322,
            "longitude": -73.97399
        },
        "NumberOfReviews": 171,
        "Rating": 3.2,
        "ZipCode": "10017",
        "Cuisine": "chinese",
        "insertedAtTimestamp": "1771451091.1662624"
    },
    {
        "BusinessID": "sfsjk1h50ooC2ioY7m48gw",
        "Name": "Pig Heaven",
        "Address": "1420 3rd Ave New York, NY 10028",
        "Coordinates": {
            "latitude": 40.77543197138421,
            "longitude": -73.95685334450994
        },
        "NumberOfReviews": 600,
        "Rating": 3.8,
        "ZipCode": "10028",
        "Cuisine": "chinese",
        "insertedAtTimestamp": "1771451091.1662624"
    },
    {
        "BusinessID": "ZYVnOS12C9x7-RS5PY7mWA",
        "Name": "Long Island Dumplings",
        "Address": "513 6th Ave New York, NY 10011",
        "Coordinates": {
            "latitude": 40.73696207654364,
            "longitude": -73.99735942024054
        },
        "NumberOfReviews": 12,
        "Rating": 4.4,
        "ZipCode": "10011",
        "Cuisine": "chinese",
        "insertedAtTimestamp": "1771451091.1662624"
    },
    {
        "BusinessID": "c2CUs5PlcvfGKiUES1_JTw",
        "Name": "Emperor Dumpling",
        "Address": "685 3rd Ave New York, NY 11232",
        "Coordinates": {
            "latitude": 40.751718316592246,
            "longitude": -73.97355601376614
        },
        "NumberOfReviews": 43,
        "Rating": 4.3,
        "ZipCode": "11232",
        "Cuisine": "chinese",
        "insertedAtTimestamp": "1771451091.1662624"
    },
    {
        "BusinessID": "LQHegfNHe7ylY3bocrFlpg",
        "Name": "Calle Dao - Bryant Park",
        "Address": "38 W 39th St New York, NY 10018",
        "Coordinates": {
            "latitude": 40.752151,
            "longitude": -73.98422
        },
        "NumberOfReviews": 2115,
        "Rating": 4.2,
        "ZipCode": "10018",
        "Cuisine": "chinese",
        "insertedAtTimestamp": "1771451091.1662624"
    },
    {
        "BusinessID": "z5f--L8_vB_WvSaRca7LQQ",
        "Name": "The Best Sichuan",
        "Address": "22 E 21st St New York, NY 10017",
        "Coordinates": {
            "latitude": 40.73945005575927,
            "longitude": -73.98913809999999
        },
        "NumberOfReviews": 151,
        "Rating": 4.5,
        "ZipCode": "10017",
        "Cuisine": "chinese",
        "insertedAtTimestamp": "1771451091.1662624"
    },
    {
        "BusinessID": "iXH9H75idkSB-Eudo5ABhg",
        "Name": "Tang By Mr Sun",
        "Address": "1442 3rd Ave New York, NY 10028",
        "Coordinates": {
            "latitude": 40.77614,
            "longitude": -73.95616
        },
        "NumberOfReviews": 144,
        "Rating": 4.4,
        "ZipCode": "10028",
        "Cuisine": "chinese",
        "insertedAtTimestamp": "1771451091.1662624"
    },
    {
        "BusinessID": "8YWLuLUKj0t_0_Xv06UUtw",
        "Name": "Ye's Apothecary",
        "Address": "119 Orchard St New York, NY 10002",
        "Coordinates": {
            "latitude": 40.71945,
            "longitude": -73.9898
        },
        "NumberOfReviews": 1054,
        "Rating": 4.6,
        "ZipCode": "10002",
        "Cuisine": "chinese",
        "insertedAtTimestamp": "1771451091.1662624"
    },
    {
        "BusinessID": "DIwe3i_-OkvfKAHrNDGtSw",
        "Name": "Red Sorghum 夜宴",
        "Address": "28-03 Jackson Ave Long Island City, NY 11101",
        "Coordinates": {
            "latitude": 40.74860457951211,
            "longitude": -73.93912612152317
        },
        "NumberOfReviews": 263,
        "Rating": 4.3,
        "ZipCode": "11101",
        "Cuisine": "chinese",
        "insertedAtTimestamp": "1771451091.1662624"
    },
    {
        "BusinessID": "xm_-5QZFzJidiUO--PgOYg",
        "Name": "Bites of Xi'an",
        "Address": "60 W 56th St New York, NY 10019",
        "Coordinates": {
            "latitude": 40.76335868622376,
            "longitude": -73.97709537292124
        },
        "NumberOfReviews": 113,
        "Rating": 4.0,
        "ZipCode": "10019",
        "Cuisine": "chinese",
        "insertedAtTimestamp": "1771451091.1662624"
    },
    {
        "BusinessID": "QaolMEijS7L6eodSneOdng",
        "Name": "Tri Dim Shanghai West",
        "Address": "467 Columbus Ave New York, NY 10024",
        "Coordinates": {
            "latitude": 40.784058,
            "longitude": -73.973567
        },
        "NumberOfReviews": 296,
        "Rating": 4.1,
        "ZipCode": "10024",
        "Cuisine": "chinese",
        "insertedAtTimestamp": "1771451091.1662624"
    },
    {
        "BusinessID": "XvSoRKqb1Xzp0uMbBX8GQQ",
        "Name": "Easy Joy Dim Sum & AYCE Hot Pot",
        "Address": "145 Mulberry St New York, NY 10013",
        "Coordinates": {
            "latitude": 40.718959,
            "longitude": -73.99761981165686
        },
        "NumberOfReviews": 66,
        "Rating": 4.7,
        "ZipCode": "10013",
        "Cuisine": "chinese",
        "insertedAtTimestamp": "1771451091.1662624"
    },
    {
        "BusinessID": "s25mujxKWphsyFm0Ji1xYA",
        "Name": "Mr Chow",
        "Address": "324 E 57th St New York, NY 10022",
        "Coordinates": {
            "latitude": 40.7588502019644,
            "longitude": -73.9643376320601
        },
        "NumberOfReviews": 471,
        "Rating": 2.9,
        "ZipCode": "10022",
        "Cuisine": "chinese",
        "insertedAtTimestamp": "1771451091.1662624"
    },
    {
        "BusinessID": "UaQF4mv6hVjiegkwUvQeMQ",
        "Name": "Dim Sum Chelsea",
        "Address": "236 8th Ave New York, NY 10011",
        "Coordinates": {
            "latitude": 40.744624,
            "longitude": -73.998649
        },
        "NumberOfReviews": 231,
        "Rating": 4.4,
        "ZipCode": "10011",
        "Cuisine": "chinese",
        "insertedAtTimestamp": "1771451091.1662624"
    },
    {
        "BusinessID": "3eBV6HwWcdHzJW3sUH-2hw",
        "Name": "ICHIRAN - Times Square",
        "Address": "152 W 49th St New York, NY 10019",
        "Coordinates": {
            "latitude": 40.7600737531204,
            "longitude": -73.9833259411037
        },
        "NumberOfReviews": 1275,
        "Rating": 4.4,
        "ZipCode": "10019",
        "Cuisine": "chinese",
        "insertedAtTimestamp": "1771451091.1662624"
    },
    {
        "BusinessID": "SYFLyQAFRFoDURRWafeLKA",
        "Name": "Lin & Daughters",
        "Address": "181 West 4th St New York, NY 10014",
        "Coordinates": {
            "latitude": 40.732531120339715,
            "longitude": -74.00166570319386
        },
        "NumberOfReviews": 130,
        "Rating": 4.5,
        "ZipCode": "10014",
        "Cuisine": "chinese",
        "insertedAtTimestamp": "1771451091.1662624"
    },
    {
        "BusinessID": "rYw5rQbWRX9buZHZbxqWdA",
        "Name": "Congee Village",
        "Address": "100 Allen St New York, NY 10002",
        "Coordinates": {
            "latitude": 40.7187,
            "longitude": -73.99031
        },
        "NumberOfReviews": 1908,
        "Rating": 3.4,
        "ZipCode": "10002",
        "Cuisine": "chinese",
        "insertedAtTimestamp": "1771451091.1662624"
    },
    {
        "BusinessID": "NFDN32ekG2gfCIikVCm0Gw",
        "Name": "The Corner Chinese Restaurant",
        "Address": "698 9th Ave New York, NY 10036",
        "Coordinates": {
            "latitude": 40.762019,
            "longitude": -73.989676
        },
        "NumberOfReviews": 125,
        "Rating": 4.1,
        "ZipCode": "10036",
        "Cuisine": "chinese",
        "insertedAtTimestamp": "1771451091.1662624"
    },
    {
        "BusinessID": "jwKPVep2qZYBUA6SLLQPvg",
        "Name": "Legend 72",
        "Address": "127 W 72nd St New York, NY 10023",
        "Coordinates": {
            "latitude": 40.77796,
            "longitude": -73.9796901
        },
        "NumberOfReviews": 307,
        "Rating": 3.4,
        "ZipCode": "10023",
        "Cuisine": "chinese",
        "insertedAtTimestamp": "1771451091.1662624"
    },
    {
        "BusinessID": "Vzx-7-jSEBz2g8NuGVhHvQ",
        "Name": "Philippe Chow",
        "Address": "10 East 52nd St New York, NY 10022",
        "Coordinates": {
            "latitude": 40.7592885,
            "longitude": -73.9756381
        },
        "NumberOfReviews": 1058,
        "Rating": 3.7,
        "ZipCode": "10022",
        "Cuisine": "chinese",
        "insertedAtTimestamp": "1771451091.1662624"
    },
    {
        "BusinessID": "l7G5tDA96xbA_bx1ZgkOeg",
        "Name": "ICHIRAN Midtown",
        "Address": "132 W 31st St New York, NY 10001",
        "Coordinates": {
            "latitude": 40.74839,
            "longitude": -73.99062
        },
        "NumberOfReviews": 1697,
        "Rating": 4.2,
        "ZipCode": "10001",
        "Cuisine": "chinese",
        "insertedAtTimestamp": "1771451091.1662624"
    },
    {
        "BusinessID": "w3wKbjuNCZnYoPOr-FCk5w",
        "Name": "New Moon",
        "Address": "547 2nd Ave New York, NY 10016",
        "Coordinates": {
            "latitude": 40.742569,
            "longitude": -73.977856
        },
        "NumberOfReviews": 219,
        "Rating": 3.8,
        "ZipCode": "10016",
        "Cuisine": "chinese",
        "insertedAtTimestamp": "1771451091.1662624"
    },
    {
        "BusinessID": "_RWjtuef4HTFQ9u0Zj6pgA",
        "Name": "South Of The Clouds",
        "Address": "1187 Amsterdam Ave New York, NY 10027",
        "Coordinates": {
            "latitude": 40.80829211998278,
            "longitude": -73.95978336689492
        },
        "NumberOfReviews": 3,
        "Rating": 4.7,
        "ZipCode": "10027",
        "Cuisine": "chinese",
        "insertedAtTimestamp": "1771451091.1662624"
    },
    {
        "BusinessID": "FQi7AP2j9UYc1c-VTF00rA",
        "Name": "Wok In The Clouds",
        "Address": "127 E 28th St New York, NY 10016",
        "Coordinates": {
            "latitude": 40.7429,
            "longitude": -73.9828
        },
        "NumberOfReviews": 45,
        "Rating": 4.5,
        "ZipCode": "10016",
        "Cuisine": "chinese",
        "insertedAtTimestamp": "1771451091.1662624"
    },
    {
        "BusinessID": "jjJc_CrkB2HodEinB6cWww",
        "Name": "LoveMama",
        "Address": "174 2nd Ave New York, NY 10003",
        "Coordinates": {
            "latitude": 40.730387,
            "longitude": -73.986093
        },
        "NumberOfReviews": 7048,
        "Rating": 4.4,
        "ZipCode": "10003",
        "Cuisine": "chinese",
        "insertedAtTimestamp": "1771451091.1662624"
    },
    {
        "BusinessID": "Q85ScF9s6vlS5_i453AFvg",
        "Name": "Tangy Noodle",
        "Address": "98 8th Ave New York, NY 10011",
        "Coordinates": {
            "latitude": 40.740203,
            "longitude": -74.00193
        },
        "NumberOfReviews": 149,
        "Rating": 4.3,
        "ZipCode": "10011",
        "Cuisine": "chinese",
        "insertedAtTimestamp": "1771451091.1662624"
    },
    {
        "BusinessID": "C3tP0fNNAoxOAC3O406CXQ",
        "Name": "Le Sia",
        "Address": "651 9th Ave New York, NY 10036",
        "Coordinates": {
            "latitude": 40.76072,
            "longitude": -73.99119
        },
        "NumberOfReviews": 173,
        "Rating": 4.3,
        "ZipCode": "10036",
        "Cuisine": "chinese",
        "insertedAtTimestamp": "1771451091.1662624"
    },
    {
        "BusinessID": "RYoc4EBUNOtgbg7c32OG9A",
        "Name": "Atoboy",
        "Address": "43 E 28th St New York, NY 10016",
        "Coordinates": {
            "latitude": 40.74364,
            "longitude": -73.98456
        },
        "NumberOfReviews": 774,
        "Rating": 4.3,
        "ZipCode": "10016",
        "Cuisine": "chinese",
        "insertedAtTimestamp": "1771451091.1662624"
    },
    {
        "BusinessID": "k-pdGug4qJ-EWd7TPuOjTw",
        "Name": "Fer",
        "Address": "41-10 29th St Long Island City, NY 11101",
        "Coordinates": {
            "latitude": 40.750926,
            "longitude": -73.93706
        },
        "NumberOfReviews": 108,
        "Rating": 4.4,
        "ZipCode": "11101",
        "Cuisine": "chinese",
        "insertedAtTimestamp": "1771451091.1662624"
    },
    {
        "BusinessID": "_2Ymg8T3aQyTD40cpoRsSg",
        "Name": "Marathon Hong Kong Diner",
        "Address": "27-17 42nd Rd Queens, NY 11101",
        "Coordinates": {
            "latitude": 40.749305,
            "longitude": -73.939942
        },
        "NumberOfReviews": 65,
        "Rating": 4.7,
        "ZipCode": "11101",
        "Cuisine": "chinese",
        "insertedAtTimestamp": "1771451091.1662624"
    },
    {
        "BusinessID": "0uxLYjybBFiIjTzyuejpxw",
        "Name": "Phoenix Palace",
        "Address": "85 Bowery New York, NY 10002",
        "Coordinates": {
            "latitude": 40.716824,
            "longitude": -73.995294
        },
        "NumberOfReviews": 108,
        "Rating": 4.4,
        "ZipCode": "10002",
        "Cuisine": "chinese",
        "insertedAtTimestamp": "1771451091.1662624"
    },
    {
        "BusinessID": "uaFHoq-a5XqxF-bsOK9_Qg",
        "Name": "Real Kung Fu Little Steamed Buns Ramen",
        "Address": "811 8th Ave New York, NY 10019",
        "Coordinates": {
            "latitude": 40.7616,
            "longitude": -73.98684
        },
        "NumberOfReviews": 1265,
        "Rating": 3.8,
        "ZipCode": "10019",
        "Cuisine": "chinese",
        "insertedAtTimestamp": "1771451091.1662624"
    },
    {
        "BusinessID": "wcrra8bgoqXVcZpMM5fE1g",
        "Name": "Fishmarket II",
        "Address": "171 Avenue A New York, NY 10009",
        "Coordinates": {
            "latitude": 40.72835,
            "longitude": -73.98204
        },
        "NumberOfReviews": 56,
        "Rating": 4.6,
        "ZipCode": "10009",
        "Cuisine": "chinese",
        "insertedAtTimestamp": "1771451092.5222085"
    },
    {
        "BusinessID": "nzqNfNXjtB6bxp-UN7xXkA",
        "Name": "Bao Bao Cafe",
        "Address": "214 W 39th St New York, NY 10018",
        "Coordinates": {
            "latitude": 40.75433080000001,
            "longitude": -73.98904885887711
        },
        "NumberOfReviews": 162,
        "Rating": 4.4,
        "ZipCode": "10018",
        "Cuisine": "chinese",
        "insertedAtTimestamp": "1771451092.5222085"
    },
    {
        "BusinessID": "U8la2dyPP9qCEteA4FGi2w",
        "Name": "Aves",
        "Address": "102 W 86th St New York, NY 10024",
        "Coordinates": {
            "latitude": 40.786280780827475,
            "longitude": -73.97266912034127
        },
        "NumberOfReviews": 23,
        "Rating": 4.2,
        "ZipCode": "10024",
        "Cuisine": "chinese",
        "insertedAtTimestamp": "1771451092.5222085"
    },
    {
        "BusinessID": "gReThXlypRra6ZVEBlYSRg",
        "Name": "MalaTown",
        "Address": "162 E 25th St New York, NY 10010",
        "Coordinates": {
            "latitude": 40.74016,
            "longitude": -73.98256
        },
        "NumberOfReviews": 27,
        "Rating": 4.9,
        "ZipCode": "10010",
        "Cuisine": "chinese",
        "insertedAtTimestamp": "1771451092.5222085"
    },
    {
        "BusinessID": "8ZBbl3VN-cu6PFOL0D7-8A",
        "Name": "Hunan Village",
        "Address": "339 Lexington Ave New York Ny New York, NY 10016",
        "Coordinates": {
            "latitude": 40.749688,
            "longitude": -73.977171
        },
        "NumberOfReviews": 78,
        "Rating": 4.2,
        "ZipCode": "10016",
        "Cuisine": "chinese",
        "insertedAtTimestamp": "1771451092.5222085"
    },
    {
        "BusinessID": "HduEOz0RSK91GDr8EoxELw",
        "Name": "Dim Sum Bloom ",
        "Address": "2596 Broadway New York, NY 10025",
        "Coordinates": {
            "latitude": 40.79578322840011,
            "longitude": -73.97059834028322
        },
        "NumberOfReviews": 65,
        "Rating": 4.0,
        "ZipCode": "10025",
        "Cuisine": "chinese",
        "insertedAtTimestamp": "1771451092.5222085"
    },
    {
        "BusinessID": "F6V4YtVJwreIEoD9Lmc6zw",
        "Name": "The Handpulled Noodle",
        "Address": "354 W 44th St New York, NY 10036",
        "Coordinates": {
            "latitude": 40.75920070305303,
            "longitude": -73.99130227384093
        },
        "NumberOfReviews": 50,
        "Rating": 4.3,
        "ZipCode": "10036",
        "Cuisine": "chinese",
        "insertedAtTimestamp": "1771451092.5222085"
    },
    {
        "BusinessID": "ipPhk_Tmp2JYInPWJR-ZgQ",
        "Name": "DH Noodles",
        "Address": "27-23 Jackson Ave Queens, NY 11101",
        "Coordinates": {
            "latitude": 40.748017,
            "longitude": -73.940455
        },
        "NumberOfReviews": 88,
        "Rating": 3.9,
        "ZipCode": "11101",
        "Cuisine": "chinese",
        "insertedAtTimestamp": "1771451092.5222085"
    },
    {
        "BusinessID": "GJZnf3B-ADjlCV1NXsHvGQ",
        "Name": "Tang's Garden",
        "Address": "1328 3rd Ave New York, NY 10021",
        "Coordinates": {
            "latitude": 40.7722574,
            "longitude": -73.9589547
        },
        "NumberOfReviews": 129,
        "Rating": 3.2,
        "ZipCode": "10021",
        "Cuisine": "chinese",
        "insertedAtTimestamp": "1771451092.5222085"
    },
    {
        "BusinessID": "wRCtNWi6QSjhxYVqSh3j4A",
        "Name": "Shanghai time",
        "Address": "273 W 38th St New York, NY 10018",
        "Coordinates": {
            "latitude": 40.754645,
            "longitude": -73.991169
        },
        "NumberOfReviews": 150,
        "Rating": 4.2,
        "ZipCode": "10018",
        "Cuisine": "chinese",
        "insertedAtTimestamp": "1771451092.5222085"
    },
    {
        "BusinessID": "8XJrpuI6RHMXmjrVzP03dw",
        "Name": "Jing Li",
        "Address": "27-35 Jackson Ave Long Island city, NY 11101",
        "Coordinates": {
            "latitude": 40.74813337129183,
            "longitude": -73.94008809102094
        },
        "NumberOfReviews": 159,
        "Rating": 4.0,
        "ZipCode": "11101",
        "Cuisine": "chinese",
        "insertedAtTimestamp": "1771451092.5222085"
    },
    {
        "BusinessID": "OQTbwd3iRAKqfw0YFZmqtQ",
        "Name": "La Caridad 72",
        "Address": "130 W 72nd St New York, NY 10023",
        "Coordinates": {
            "latitude": 40.77775,
            "longitude": -73.98003
        },
        "NumberOfReviews": 120,
        "Rating": 4.3,
        "ZipCode": "10023",
        "Cuisine": "chinese",
        "insertedAtTimestamp": "1771451092.5222085"
    },
    {
        "BusinessID": "ICNwlgXTrvFrGvaScUp8Ew",
        "Name": "For U",
        "Address": "155 3rd Ave New York, NY 10003",
        "Coordinates": {
            "latitude": 40.73415,
            "longitude": -73.98633
        },
        "NumberOfReviews": 109,
        "Rating": 4.7,
        "ZipCode": "10003",
        "Cuisine": "chinese",
        "insertedAtTimestamp": "1771451092.5222085"
    },
    {
        "BusinessID": "_lx7nuvXU7LhDRL3a9TMAw",
        "Name": "DD Soup Dumpling",
        "Address": "321 W 42nd St New York, NY 10036",
        "Coordinates": {
            "latitude": 40.75791299999999,
            "longitude": -73.99069999999999
        },
        "NumberOfReviews": 253,
        "Rating": 4.5,
        "ZipCode": "10036",
        "Cuisine": "chinese",
        "insertedAtTimestamp": "1771451092.5222085"
    },
    {
        "BusinessID": "qEe7nIhPfEL6L0-VYhWRrA",
        "Name": "Raku",
        "Address": "48 Macdougal St New York, NY 10012",
        "Coordinates": {
            "latitude": 40.7272479,
            "longitude": -74.00253944171621
        },
        "NumberOfReviews": 1156,
        "Rating": 4.5,
        "ZipCode": "10012",
        "Cuisine": "chinese",
        "insertedAtTimestamp": "1771451092.5222085"
    },
    {
        "BusinessID": "cJ1Uf4MlR4egrG-lbfh8oA",
        "Name": "Spice Symphony Times Square",
        "Address": "317 W 46th St New York, NY 10036",
        "Coordinates": {
            "latitude": 40.760281,
            "longitude": -73.988754
        },
        "NumberOfReviews": 86,
        "Rating": 4.4,
        "ZipCode": "10036",
        "Cuisine": "chinese",
        "insertedAtTimestamp": "1771451092.5222085"
    },
    {
        "BusinessID": "GAFqRBlqZpLK2vYbiqzYhA",
        "Name": "Peppercorn Station",
        "Address": "66 W 39th St New York, NY 10018",
        "Coordinates": {
            "latitude": 40.75266,
            "longitude": -73.985145
        },
        "NumberOfReviews": 159,
        "Rating": 4.2,
        "ZipCode": "10018",
        "Cuisine": "chinese",
        "insertedAtTimestamp": "1771451092.5222085"
    },
    {
        "BusinessID": "7wrFd9tnIBMClzDnrWdSNw",
        "Name": "Chinatown Kitchen",
        "Address": "450 60th St West New York, NJ 07093",
        "Coordinates": {
            "latitude": 40.7885757502878,
            "longitude": -74.0158536518411
        },
        "NumberOfReviews": 15,
        "Rating": 4.5,
        "ZipCode": "07093",
        "Cuisine": "chinese",
        "insertedAtTimestamp": "1771451092.5222085"
    },
    {
        "BusinessID": "wCg9KKl42BT54p8h1DU_mw",
        "Name": "Hunan Tapas",
        "Address": "4107 Crescent St Queens, NY 11101",
        "Coordinates": {
            "latitude": 40.751991,
            "longitude": -73.939109
        },
        "NumberOfReviews": 4,
        "Rating": 4.0,
        "ZipCode": "11101",
        "Cuisine": "chinese",
        "insertedAtTimestamp": "1771451092.5222085"
    },
    {
        "BusinessID": "MdDj13LgIs0WdbIdiyqB7Q",
        "Name": "Pinch Chinese",
        "Address": "177 Prince St New York, NY 10012",
        "Coordinates": {
            "latitude": 40.72645222833495,
            "longitude": -74.0017973317552
        },
        "NumberOfReviews": 523,
        "Rating": 3.8,
        "ZipCode": "10012",
        "Cuisine": "chinese",
        "insertedAtTimestamp": "1771451092.5222085"
    },
    {
        "BusinessID": "gvOe1TLb8hZgx0naC9LYpw",
        "Name": "Sei Less",
        "Address": "156 W 38th St New York, NY 10018",
        "Coordinates": {
            "latitude": 40.75314,
            "longitude": -73.98814
        },
        "NumberOfReviews": 442,
        "Rating": 3.9,
        "ZipCode": "10018",
        "Cuisine": "chinese",
        "insertedAtTimestamp": "1771451092.5222085"
    },
    {
        "BusinessID": "NebgteFykeM1gwiVgPcCHw",
        "Name": "The Handpulled Noodle",
        "Address": "3600 Broadway Ste 3 New York, NY 10031",
        "Coordinates": {
            "latitude": 40.828301,
            "longitude": -73.948534
        },
        "NumberOfReviews": 1252,
        "Rating": 4.2,
        "ZipCode": "10031",
        "Cuisine": "chinese",
        "insertedAtTimestamp": "1771451092.5222085"
    },
    {
        "BusinessID": "7ZQSMqWzvXMSetXnii2fBg",
        "Name": "Excellent Dumpling House",
        "Address": "165 W 23rd St New York, NY 10011",
        "Coordinates": {
            "latitude": 40.744097,
            "longitude": -73.994979
        },
        "NumberOfReviews": 865,
        "Rating": 4.1,
        "ZipCode": "10011",
        "Cuisine": "chinese",
        "insertedAtTimestamp": "1771451092.5222085"
    },
    {
        "BusinessID": "_7GunmWHykEJ5_u2zkX1gg",
        "Name": "Dim Sum Sam",
        "Address": "28 E 23rd St New York, NY 10010",
        "Coordinates": {
            "latitude": 40.740541,
            "longitude": -73.987818
        },
        "NumberOfReviews": 167,
        "Rating": 3.9,
        "ZipCode": "10010",
        "Cuisine": "chinese",
        "insertedAtTimestamp": "1771451092.5222085"
    },
    {
        "BusinessID": "4DInnPhOyvXFbYpUdO0SMQ",
        "Name": "Antidote",
        "Address": "66 S 2nd St Brooklyn, NY 11249",
        "Coordinates": {
            "latitude": 40.714186,
            "longitude": -73.965493
        },
        "NumberOfReviews": 634,
        "Rating": 4.6,
        "ZipCode": "11249",
        "Cuisine": "chinese",
        "insertedAtTimestamp": "1771451092.5222085"
    },
    {
        "BusinessID": "LTVNsNBh_0FI8MYrPfjRDQ",
        "Name": "Jiang Nan - NYC",
        "Address": "103 Bowery New York, NY 10002",
        "Coordinates": {
            "latitude": 40.717553,
            "longitude": -73.99501
        },
        "NumberOfReviews": 320,
        "Rating": 4.4,
        "ZipCode": "10002",
        "Cuisine": "chinese",
        "insertedAtTimestamp": "1771451092.5222085"
    },
    {
        "BusinessID": "aWkekCYI9zNA6xDwYEtYpg",
        "Name": "Golden Wuish The Duck House",
        "Address": "6 Platt St New York, NY 10038",
        "Coordinates": {
            "latitude": 40.707324,
            "longitude": -74.006407
        },
        "NumberOfReviews": 261,
        "Rating": 4.3,
        "ZipCode": "10038",
        "Cuisine": "chinese",
        "insertedAtTimestamp": "1771451092.5222085"
    },
    {
        "BusinessID": "Kqb7MjTPNkjPMoFRd-rWpw",
        "Name": "MáLà Project",
        "Address": "122 1st Ave New York, NY 10009",
        "Coordinates": {
            "latitude": 40.72714681219886,
            "longitude": -73.98541890324336
        },
        "NumberOfReviews": 996,
        "Rating": 4.2,
        "ZipCode": "10009",
        "Cuisine": "chinese",
        "insertedAtTimestamp": "1771451092.5222085"
    },
    {
        "BusinessID": "uhhOOprg9LqysXuQpm9H0Q",
        "Name": "iDen & Quanjude Beijing Duck House",
        "Address": "3 East 52nd St New York, NY 10022",
        "Coordinates": {
            "latitude": 40.7596356,
            "longitude": -73.9756795
        },
        "NumberOfReviews": 28,
        "Rating": 3.4,
        "ZipCode": "10022",
        "Cuisine": "chinese",
        "insertedAtTimestamp": "1771451092.5222085"
    },
    {
        "BusinessID": "RkcQl4uEJWblWf4xX8ssqQ",
        "Name": "Wa Jeal Sichuan Chili House",
        "Address": "1588 2nd Ave New York, NY 10028",
        "Coordinates": {
            "latitude": 40.77536,
            "longitude": -73.95317
        },
        "NumberOfReviews": 486,
        "Rating": 3.7,
        "ZipCode": "10028",
        "Cuisine": "chinese",
        "insertedAtTimestamp": "1771451092.5222085"
    },
    {
        "BusinessID": "eEeBhw0UeyEyH5elwm9ULg",
        "Name": "Juqi",
        "Address": "133-36 37th Ave Flushing, NY 11354",
        "Coordinates": {
            "latitude": 40.76030658850499,
            "longitude": -73.8335025
        },
        "NumberOfReviews": 1056,
        "Rating": 4.6,
        "ZipCode": "11354",
        "Cuisine": "chinese",
        "insertedAtTimestamp": "1771451092.5222085"
    },
    {
        "BusinessID": "JxrTO6uUxYkrKvFKg3JmRw",
        "Name": "Jiang Nan - Long Island City",
        "Address": "27-19 Thomson Ave Long Island City, NY 11101",
        "Coordinates": {
            "latitude": 40.746444,
            "longitude": -73.942336
        },
        "NumberOfReviews": 95,
        "Rating": 4.4,
        "ZipCode": "11101",
        "Cuisine": "chinese",
        "insertedAtTimestamp": "1771451092.5222085"
    },
    {
        "BusinessID": "K0qsGnFv-edPDqVBdLCocQ",
        "Name": "China Garden",
        "Address": "39-20 47th Ave Sunnyside, NY 11104",
        "Coordinates": {
            "latitude": 40.74166,
            "longitude": -73.92577
        },
        "NumberOfReviews": 97,
        "Rating": 4.0,
        "ZipCode": "11104",
        "Cuisine": "chinese",
        "insertedAtTimestamp": "1771451092.5222085"
    },
    {
        "BusinessID": "iM2DKMjyU_R1r8x-3AZGQg",
        "Name": "New Cottage",
        "Address": "2199 Broadway New York, NY 10024",
        "Coordinates": {
            "latitude": 40.78326357630784,
            "longitude": -73.98078454782609
        },
        "NumberOfReviews": 131,
        "Rating": 3.9,
        "ZipCode": "10024",
        "Cuisine": "chinese",
        "insertedAtTimestamp": "1771451092.5222085"
    },
    {
        "BusinessID": "ASf5l4u-eMhBgNbPy5HLOQ",
        "Name": "Tha Phraya",
        "Address": "1553 2nd Ave New York, NY 10028",
        "Coordinates": {
            "latitude": 40.77454178196952,
            "longitude": -73.95451304440785
        },
        "NumberOfReviews": 187,
        "Rating": 4.4,
        "ZipCode": "10028",
        "Cuisine": "chinese",
        "insertedAtTimestamp": "1771451092.5222085"
    },
    {
        "BusinessID": "AILf_L7I9vJ2pyHmSo9v8Q",
        "Name": "OBAO",
        "Address": "222 E 53rd St New York, NY 10022",
        "Coordinates": {
            "latitude": 40.75717754,
            "longitude": -73.9685544
        },
        "NumberOfReviews": 1291,
        "Rating": 3.8,
        "ZipCode": "10022",
        "Cuisine": "chinese",
        "insertedAtTimestamp": "1771451092.5222085"
    },
    {
        "BusinessID": "-Q0HTFIJ1aZekdPbY1QrRQ",
        "Name": "San Wei",
        "Address": "89 E 42nd St New York, NY 10017",
        "Coordinates": {
            "latitude": 40.752652,
            "longitude": -73.977349
        },
        "NumberOfReviews": 16,
        "Rating": 4.3,
        "ZipCode": "10017",
        "Cuisine": "chinese",
        "insertedAtTimestamp": "1771451092.5222085"
    },
    {
        "BusinessID": "vZgJyMZlpSSS_Y-duxd4_A",
        "Name": "Kings Co Imperial",
        "Address": "20 Skillman Ave Brooklyn, NY 11211",
        "Coordinates": {
            "latitude": 40.71512,
            "longitude": -73.95097
        },
        "NumberOfReviews": 449,
        "Rating": 4.0,
        "ZipCode": "11211",
        "Cuisine": "chinese",
        "insertedAtTimestamp": "1771451092.5222085"
    },
    {
        "BusinessID": "oTkzgr7hzOAdlP99Auj3GQ",
        "Name": "Momosan Ramen & Sake",
        "Address": "342 Lexington Ave New York, NY 10016",
        "Coordinates": {
            "latitude": 40.749928,
            "longitude": -73.977468
        },
        "NumberOfReviews": 1976,
        "Rating": 4.1,
        "ZipCode": "10016",
        "Cuisine": "chinese",
        "insertedAtTimestamp": "1771451092.5222085"
    },
    {
        "BusinessID": "-Exv1AEsaKU6Cdb2TO_ZUg",
        "Name": "The Lobster Club",
        "Address": "98 E 53rd St New York, NY 10022",
        "Coordinates": {
            "latitude": 40.758301,
            "longitude": -73.971868
        },
        "NumberOfReviews": 194,
        "Rating": 4.1,
        "ZipCode": "10022",
        "Cuisine": "chinese",
        "insertedAtTimestamp": "1771451092.5222085"
    },
    {
        "BusinessID": "BexNFvRW1iMV1kiPwzzyiw",
        "Name": "Mala Town",
        "Address": "929 Amsterdam Ave New York, NY 10025",
        "Coordinates": {
            "latitude": 40.799988,
            "longitude": -73.965637
        },
        "NumberOfReviews": 43,
        "Rating": 4.4,
        "ZipCode": "10025",
        "Cuisine": "chinese",
        "insertedAtTimestamp": "1771451093.8516805"
    },
    {
        "BusinessID": "EcDHcdZP3N9LX0qCeo60fA",
        "Name": "Cha Dim Sum",
        "Address": "1134 1st Ave New York, NY 10065",
        "Coordinates": {
            "latitude": 40.76158632935364,
            "longitude": -73.96011480915047
        },
        "NumberOfReviews": 13,
        "Rating": 4.1,
        "ZipCode": "10065",
        "Cuisine": "chinese",
        "insertedAtTimestamp": "1771451093.8516805"
    },
    {
        "BusinessID": "0LFFYIywlHaXpTeYrJe9Hg",
        "Name": "Nai Brother Sauerkraut Fish",
        "Address": "654 9th Ave New York, NY 10036",
        "Coordinates": {
            "latitude": 40.76071439272882,
            "longitude": -73.9906761
        },
        "NumberOfReviews": 70,
        "Rating": 4.8,
        "ZipCode": "10036",
        "Cuisine": "chinese",
        "insertedAtTimestamp": "1771451093.8516805"
    },
    {
        "BusinessID": "MhceeLrM2_3mcKw5EGLY6A",
        "Name": "Pure Thai Cookhouse",
        "Address": "766 9th Ave New York, NY 10019",
        "Coordinates": {
            "latitude": 40.764291,
            "longitude": -73.988159
        },
        "NumberOfReviews": 2940,
        "Rating": 4.2,
        "ZipCode": "10019",
        "Cuisine": "chinese",
        "insertedAtTimestamp": "1771451093.8516805"
    },
    {
        "BusinessID": "ItZ8CzZAGXGjB8_9HxDIXg",
        "Name": "Grand Sichuan Eastern",
        "Address": "172 8th Ave New York, NY 10011",
        "Coordinates": {
            "latitude": 40.74256,
            "longitude": -74.00026
        },
        "NumberOfReviews": 151,
        "Rating": 3.0,
        "ZipCode": "10011",
        "Cuisine": "chinese",
        "insertedAtTimestamp": "1771451093.8516805"
    },
    {
        "BusinessID": "Dqp5Itsj9dN0Ewz8Gm853g",
        "Name": "Philippe Chow",
        "Address": "355 W 16th St New York, NY 10011",
        "Coordinates": {
            "latitude": 40.74201111677302,
            "longitude": -74.00350172379244
        },
        "NumberOfReviews": 288,
        "Rating": 3.9,
        "ZipCode": "10011",
        "Cuisine": "chinese",
        "insertedAtTimestamp": "1771451093.8516805"
    },
    {
        "BusinessID": "smxIke5NSkMIExa6jLVw-g",
        "Name": "Joe's Steam Rice Roll",
        "Address": "422 Amsterdam Ave New York, NY 10024",
        "Coordinates": {
            "latitude": 40.784079,
            "longitude": -73.977885
        },
        "NumberOfReviews": 294,
        "Rating": 4.3,
        "ZipCode": "10024",
        "Cuisine": "chinese",
        "insertedAtTimestamp": "1771451093.8516805"
    },
    {
        "BusinessID": "fjj5hk9vmfjaxq855OBQXQ",
        "Name": "Cozy Rice",
        "Address": "42 W 38th St New York, NY 10018",
        "Coordinates": {
            "latitude": 40.751628,
            "longitude": -73.984771
        },
        "NumberOfReviews": 59,
        "Rating": 4.5,
        "ZipCode": "10018",
        "Cuisine": "chinese",
        "insertedAtTimestamp": "1771451093.8516805"
    },
    {
        "BusinessID": "fFrQ4Hi5hKGjpxDpqyx-mQ",
        "Name": "Han Dynasty",
        "Address": "4504 Pearson St Long Island City, NY 11101",
        "Coordinates": {
            "latitude": 40.74581,
            "longitude": -73.94485
        },
        "NumberOfReviews": 55,
        "Rating": 4.2,
        "ZipCode": "11101",
        "Cuisine": "chinese",
        "insertedAtTimestamp": "1771451093.8516805"
    },
    {
        "BusinessID": "Ej-hrhc8HFWfijN4X5akOg",
        "Name": "Dim Sum Palace",
        "Address": "33 W 33rd St New York, NY 10001",
        "Coordinates": {
            "latitude": 40.7486498128575,
            "longitude": -73.98684828079797
        },
        "NumberOfReviews": 295,
        "Rating": 4.2,
        "ZipCode": "10001",
        "Cuisine": "chinese",
        "insertedAtTimestamp": "1771451093.8516805"
    },
    {
        "BusinessID": "-VRnWGBVMovSS0Ijta_qyg",
        "Name": "Da Long Yi Hot Pot",
        "Address": "42-22 Crescent St Long Island City, NY 11101",
        "Coordinates": {
            "latitude": 40.75014,
            "longitude": -73.94132
        },
        "NumberOfReviews": 264,
        "Rating": 4.7,
        "ZipCode": "11101",
        "Cuisine": "chinese",
        "insertedAtTimestamp": "1771451093.8516805"
    },
    {
        "BusinessID": "X2CQCOS4AiwKzqAOrZxeYg",
        "Name": "Bites Of Xi’an",
        "Address": "555 8th Ave New York, NY 10018",
        "Coordinates": {
            "latitude": 40.7546,
            "longitude": -73.99194
        },
        "NumberOfReviews": 50,
        "Rating": 4.0,
        "ZipCode": "10018",
        "Cuisine": "chinese",
        "insertedAtTimestamp": "1771451093.8516805"
    },
    {
        "BusinessID": "Jghofss7sIseYyJrxxn0zg",
        "Name": "Chubby Skewers ",
        "Address": "252 W 37th St New York, NY 10018",
        "Coordinates": {
            "latitude": 40.753584,
            "longitude": -73.991445
        },
        "NumberOfReviews": 248,
        "Rating": 4.4,
        "ZipCode": "10018",
        "Cuisine": "chinese",
        "insertedAtTimestamp": "1771451093.8516805"
    },
    {
        "BusinessID": "3gqKLANaXNsHZnPDjKrcTg",
        "Name": "Win Son",
        "Address": "159 Graham Ave Brooklyn, NY 11206",
        "Coordinates": {
            "latitude": 40.70747,
            "longitude": -73.94339
        },
        "NumberOfReviews": 858,
        "Rating": 4.2,
        "ZipCode": "11206",
        "Cuisine": "chinese",
        "insertedAtTimestamp": "1771451093.8516805"
    },
    {
        "BusinessID": "_-Gb3IAx74cyka9yTOb_oA",
        "Name": "ASSET",
        "Address": "329 Columbus Ave New York, NY 10023",
        "Coordinates": {
            "latitude": 40.77948,
            "longitude": -73.97705
        },
        "NumberOfReviews": 208,
        "Rating": 4.0,
        "ZipCode": "10023",
        "Cuisine": "chinese",
        "insertedAtTimestamp": "1771451093.8516805"
    },
    {
        "BusinessID": "Ykd24dTAKnU-Er40fSfIkQ",
        "Name": "Xi'an Famous Foods",
        "Address": "885 8th Ave New York, NY 10019",
        "Coordinates": {
            "latitude": 40.764147,
            "longitude": -73.98511
        },
        "NumberOfReviews": 6,
        "Rating": 4.8,
        "ZipCode": "10019",
        "Cuisine": "chinese",
        "insertedAtTimestamp": "1771451093.8516805"
    },
    {
        "BusinessID": "uSA8YIZaI-2ikkkLzLdwIA",
        "Name": "Yeh’s Bao",
        "Address": "38 Rector St New York, NY 10006",
        "Coordinates": {
            "latitude": 40.708411454439194,
            "longitude": -74.0146604
        },
        "NumberOfReviews": 45,
        "Rating": 4.4,
        "ZipCode": "10006",
        "Cuisine": "chinese",
        "insertedAtTimestamp": "1771451093.8516805"
    },
    {
        "BusinessID": "zj4vqgljRhxwWlvttgFRKQ",
        "Name": "Wagamama",
        "Address": "210 5th Ave Ste 26 New York, NY 10010",
        "Coordinates": {
            "latitude": 40.74337111701475,
            "longitude": -73.98877110000001
        },
        "NumberOfReviews": 1254,
        "Rating": 3.7,
        "ZipCode": "10010",
        "Cuisine": "chinese",
        "insertedAtTimestamp": "1771451093.8516805"
    },
    {
        "BusinessID": "VW2Epq3C8jqysu6Edpu-RA",
        "Name": "Atlas Kitchen",
        "Address": "258 W 109th St New York, NY 10025",
        "Coordinates": {
            "latitude": 40.80332,
            "longitude": -73.9668
        },
        "NumberOfReviews": 231,
        "Rating": 3.8,
        "ZipCode": "10025",
        "Cuisine": "chinese",
        "insertedAtTimestamp": "1771451093.8516805"
    },
    {
        "BusinessID": "JJx2ynZY-KemZ4GlcMWv6Q",
        "Name": "Nai Brother Sauerkraut Fish",
        "Address": "2819 Broadway New York, NY 10025",
        "Coordinates": {
            "latitude": 40.80346,
            "longitude": -73.96756
        },
        "NumberOfReviews": 18,
        "Rating": 4.5,
        "ZipCode": "10025",
        "Cuisine": "chinese",
        "insertedAtTimestamp": "1771451093.8516805"
    },
    {
        "BusinessID": "lTJtCYatAk9oL3ncVofr6w",
        "Name": "Shang Gong Chu",
        "Address": "319 Warren St Jersey City, NJ 07302",
        "Coordinates": {
            "latitude": 40.71903,
            "longitude": -74.03879
        },
        "NumberOfReviews": 75,
        "Rating": 4.5,
        "ZipCode": "07302",
        "Cuisine": "chinese",
        "insertedAtTimestamp": "1771451093.8516805"
    },
    {
        "BusinessID": "iSjPBJRiWqrgxW7ZM3CGig",
        "Name": "Birds of a Feather",
        "Address": "191 Grand St Brooklyn, NY 11211",
        "Coordinates": {
            "latitude": 40.71442,
            "longitude": -73.960441
        },
        "NumberOfReviews": 769,
        "Rating": 4.2,
        "ZipCode": "11211",
        "Cuisine": "chinese",
        "insertedAtTimestamp": "1771451093.8516805"
    },
    {
        "BusinessID": "BtsXojrMtfLRhhFK7rm35A",
        "Name": "HUPO 琥珀",
        "Address": "10-07 50th Ave Long Island City, NY 11101",
        "Coordinates": {
            "latitude": 40.74284,
            "longitude": -73.953607
        },
        "NumberOfReviews": 303,
        "Rating": 4.3,
        "ZipCode": "11101",
        "Cuisine": "chinese",
        "insertedAtTimestamp": "1771451093.8516805"
    },
    {
        "BusinessID": "Tkd1XoIUPa4wor8LN7Cfgw",
        "Name": "Bites Of Xian",
        "Address": "884 6th Ave New York, NY 10001",
        "Coordinates": {
            "latitude": 40.74812,
            "longitude": -73.9888
        },
        "NumberOfReviews": 44,
        "Rating": 3.7,
        "ZipCode": "10001",
        "Cuisine": "chinese",
        "insertedAtTimestamp": "1771451093.8516805"
    },
    {
        "BusinessID": "RWqYuXGQyaM9vl7FUhyHGQ",
        "Name": "Foodie Bbq",
        "Address": "300 Grand St New York, NY 10002",
        "Coordinates": {
            "latitude": 40.71764408380964,
            "longitude": -73.9916840558393
        },
        "NumberOfReviews": 7,
        "Rating": 3.9,
        "ZipCode": "10002",
        "Cuisine": "chinese",
        "insertedAtTimestamp": "1771451093.8516805"
    },
    {
        "BusinessID": "Lp8vAE5nHSt5zbu-lSGK8A",
        "Name": "Hop Lee Restaurant",
        "Address": "16 Mott St New York, NY 10013",
        "Coordinates": {
            "latitude": 40.71422,
            "longitude": -73.99864
        },
        "NumberOfReviews": 428,
        "Rating": 3.9,
        "ZipCode": "10013",
        "Cuisine": "chinese",
        "insertedAtTimestamp": "1771451093.8516805"
    },
    {
        "BusinessID": "UBY796Pa8HAuqC2uRR0WNg",
        "Name": "Dim Sum Sam",
        "Address": "240 W 40th St New York, NY 10018",
        "Coordinates": {
            "latitude": 40.75532,
            "longitude": -73.98949
        },
        "NumberOfReviews": 230,
        "Rating": 4.0,
        "ZipCode": "10018",
        "Cuisine": "chinese",
        "insertedAtTimestamp": "1771451093.8516805"
    },
    {
        "BusinessID": "slMRh4GEu5Mg53kicgmf4g",
        "Name": "Four Four South Village",
        "Address": "368 W 46th St New York, NY 10036",
        "Coordinates": {
            "latitude": 40.76068,
            "longitude": -73.99034
        },
        "NumberOfReviews": 166,
        "Rating": 4.3,
        "ZipCode": "10036",
        "Cuisine": "chinese",
        "insertedAtTimestamp": "1771451093.8516805"
    },
    {
        "BusinessID": "vDPx5p1TlahKM3kEKF-drQ",
        "Name": "Mala Panda",
        "Address": "105 West 27th St New York, NY 10001",
        "Coordinates": {
            "latitude": 40.74582305157627,
            "longitude": -73.99136341799563
        },
        "NumberOfReviews": 92,
        "Rating": 4.6,
        "ZipCode": "10001",
        "Cuisine": "chinese",
        "insertedAtTimestamp": "1771451093.8516805"
    },
    {
        "BusinessID": "Pr-q47vsmM4aoc2t_Sfk8w",
        "Name": "Momofuku Noodle Bar - Uptown",
        "Address": "10 Columbus Cir Third Floor New York, NY 10019",
        "Coordinates": {
            "latitude": 40.768727298498355,
            "longitude": -73.98319732883618
        },
        "NumberOfReviews": 786,
        "Rating": 4.0,
        "ZipCode": "10019",
        "Cuisine": "chinese",
        "insertedAtTimestamp": "1771451093.8516805"
    },
    {
        "BusinessID": "ccQ7sSdnvNkBGRHtpe2Xxg",
        "Name": "Bao & Bowls",
        "Address": "401 E 13th St New York, NY 10009",
        "Coordinates": {
            "latitude": 40.73067132633045,
            "longitude": -73.9827876
        },
        "NumberOfReviews": 22,
        "Rating": 4.5,
        "ZipCode": "10009",
        "Cuisine": "chinese",
        "insertedAtTimestamp": "1771451093.8516805"
    },
    {
        "BusinessID": "wjIyCBEpCG_HRp8veiI0YQ",
        "Name": "Ootoya Times Square",
        "Address": "141 W 41st St New York, NY 10036",
        "Coordinates": {
            "latitude": 40.754924,
            "longitude": -73.985945
        },
        "NumberOfReviews": 1230,
        "Rating": 4.0,
        "ZipCode": "10036",
        "Cuisine": "chinese",
        "insertedAtTimestamp": "1771451093.8516805"
    },
    {
        "BusinessID": "ubCz-rD2UFAhGahsmmf_Ww",
        "Name": "Hou Hot Pot",
        "Address": "307 W 39th St New York, NY 10018",
        "Coordinates": {
            "latitude": 40.755665,
            "longitude": -73.99173
        },
        "NumberOfReviews": 1,
        "Rating": 4.0,
        "ZipCode": "10018",
        "Cuisine": "chinese",
        "insertedAtTimestamp": "1771451093.8516805"
    },
    {
        "BusinessID": "Ig5-xwGEXMFssmwIvzxCRQ",
        "Name": "Silky Kitchen",
        "Address": "3002 39th Ave Spc 1 Long Island City, NY 11101",
        "Coordinates": {
            "latitude": 40.75274078729301,
            "longitude": -73.93320107260092
        },
        "NumberOfReviews": 46,
        "Rating": 4.2,
        "ZipCode": "11101",
        "Cuisine": "chinese",
        "insertedAtTimestamp": "1771451093.8516805"
    },
    {
        "BusinessID": "wobICp6lQP7Y6dfnJ_4Ujw",
        "Name": "Shun Lee West & Cafe",
        "Address": "43 W 65th St New York, NY 10023",
        "Coordinates": {
            "latitude": 40.77269583,
            "longitude": -73.98150783
        },
        "NumberOfReviews": 615,
        "Rating": 2.7,
        "ZipCode": "10023",
        "Cuisine": "chinese",
        "insertedAtTimestamp": "1771451093.8516805"
    },
    {
        "BusinessID": "g512kssHLLTdDbUJHTmJFw",
        "Name": "Stick To My Pot",
        "Address": "224 W 35th St New York, NY 10001",
        "Coordinates": {
            "latitude": 40.75202,
            "longitude": -73.99121
        },
        "NumberOfReviews": 297,
        "Rating": 4.4,
        "ZipCode": "10001",
        "Cuisine": "chinese",
        "insertedAtTimestamp": "1771451093.8516805"
    },
    {
        "BusinessID": "JaKLZrh1Y_2qB_0Gc3bk3A",
        "Name": "Ollie's Sichuan",
        "Address": "411 W 42nd St New York, NY 10036",
        "Coordinates": {
            "latitude": 40.75884,
            "longitude": -73.99319
        },
        "NumberOfReviews": 690,
        "Rating": 3.4,
        "ZipCode": "10036",
        "Cuisine": "chinese",
        "insertedAtTimestamp": "1771451093.8516805"
    },
    {
        "BusinessID": "YP1NmKpi7-KCNahX9Js3Ow",
        "Name": "Simply Noodles & Dim Sum Bryant Park",
        "Address": "110 W 40th St New York, NY 10018",
        "Coordinates": {
            "latitude": 40.7537,
            "longitude": -73.985965
        },
        "NumberOfReviews": 47,
        "Rating": 4.6,
        "ZipCode": "10018",
        "Cuisine": "chinese",
        "insertedAtTimestamp": "1771451093.8516805"
    },
    {
        "BusinessID": "gNGxh97n0NZgYG1Q_no9Kg",
        "Name": "Potluck Club 佰樂",
        "Address": "133 Chrystie St New York, NY 10002",
        "Coordinates": {
            "latitude": 40.719588,
            "longitude": -73.993519
        },
        "NumberOfReviews": 539,
        "Rating": 4.3,
        "ZipCode": "10002",
        "Cuisine": "chinese",
        "insertedAtTimestamp": "1771451093.8516805"
    },
    {
        "BusinessID": "MYPes7EWP5aLiVG1Z_9eFQ",
        "Name": "Jing Fong",
        "Address": "380 Amsterdam Ave New York, NY 10024",
        "Coordinates": {
            "latitude": 40.7827096147799,
            "longitude": -73.9789128775797
        },
        "NumberOfReviews": 365,
        "Rating": 3.2,
        "ZipCode": "10024",
        "Cuisine": "chinese",
        "insertedAtTimestamp": "1771451093.8516805"
    },
    {
        "BusinessID": "klAhw3xLQi9GF1tf_HnS7w",
        "Name": "Izakaya MEW",
        "Address": "53 W 35th St New York, NY 10001",
        "Coordinates": {
            "latitude": 40.750148,
            "longitude": -73.9863203465939
        },
        "NumberOfReviews": 3257,
        "Rating": 4.3,
        "ZipCode": "10001",
        "Cuisine": "japanese",
        "insertedAtTimestamp": "1771451095.1331036"
    },
    {
        "BusinessID": "itllIZ9A2UAkGjplsjNtlA",
        "Name": "Sozai",
        "Address": "19 W 45th St New York, NY 10036",
        "Coordinates": {
            "latitude": 40.755943329865374,
            "longitude": -73.98034639656544
        },
        "NumberOfReviews": 135,
        "Rating": 4.3,
        "ZipCode": "10036",
        "Cuisine": "japanese",
        "insertedAtTimestamp": "1771451095.1331036"
    },
    {
        "BusinessID": "3QIFBLKp2Z9zA-PXlUEQlg",
        "Name": "Okatte Tanto NY",
        "Address": "249 E 49th St New York, NY 10017",
        "Coordinates": {
            "latitude": 40.75455,
            "longitude": -73.96941
        },
        "NumberOfReviews": 60,
        "Rating": 4.5,
        "ZipCode": "10017",
        "Cuisine": "japanese",
        "insertedAtTimestamp": "1771451095.1331036"
    },
    {
        "BusinessID": "MLBqYHtCwACXgmKxYTFq3g",
        "Name": "KazuNori | Midtown East",
        "Address": "157 E 53rd St Plaza Level The Hugh New York, NY 10022",
        "Coordinates": {
            "latitude": 40.7580782,
            "longitude": -73.96999889026759
        },
        "NumberOfReviews": 166,
        "Rating": 4.6,
        "ZipCode": "10022",
        "Cuisine": "japanese",
        "insertedAtTimestamp": "1771451095.1331036"
    },
    {
        "BusinessID": "GUOSYM9barqsuIxZ5jO-AQ",
        "Name": "Tensai",
        "Address": "222 E 51st St New York, NY 10022",
        "Coordinates": {
            "latitude": 40.75597132659824,
            "longitude": -73.9694350398638
        },
        "NumberOfReviews": 47,
        "Rating": 4.3,
        "ZipCode": "10022",
        "Cuisine": "japanese",
        "insertedAtTimestamp": "1771451095.1331036"
    },
    {
        "BusinessID": "FlZ1zdVEKWv7dwqm8Uw8-w",
        "Name": "Raku",
        "Address": "342 E 6th St New York, NY 10003",
        "Coordinates": {
            "latitude": 40.7264988089246,
            "longitude": -73.9866526052356
        },
        "NumberOfReviews": 1822,
        "Rating": 4.4,
        "ZipCode": "10003",
        "Cuisine": "japanese",
        "insertedAtTimestamp": "1771451095.1331036"
    },
    {
        "BusinessID": "7iY35991NhQ1AShJZCNZgA",
        "Name": "Sakagura",
        "Address": "211 E 43rd St New York, NY 10017",
        "Coordinates": {
            "latitude": 40.7516467024541,
            "longitude": -73.9729489318165
        },
        "NumberOfReviews": 1940,
        "Rating": 4.2,
        "ZipCode": "10017",
        "Cuisine": "japanese",
        "insertedAtTimestamp": "1771451095.1331036"
    },
    {
        "BusinessID": "n7hfvvUtzeaLwKCGVegALQ",
        "Name": "Konban",
        "Address": "311 W 17th St New York, NY 10011",
        "Coordinates": {
            "latitude": 40.741979,
            "longitude": -74.001592
        },
        "NumberOfReviews": 452,
        "Rating": 4.4,
        "ZipCode": "10011",
        "Cuisine": "japanese",
        "insertedAtTimestamp": "1771451095.1331036"
    },
    {
        "BusinessID": "wpT1QU7PSQgQQ1DkzI00JA",
        "Name": "Izakaya Toribar",
        "Address": "164 E 56th St New York, NY 10022",
        "Coordinates": {
            "latitude": 40.759641,
            "longitude": -73.9685558
        },
        "NumberOfReviews": 213,
        "Rating": 4.2,
        "ZipCode": "10022",
        "Cuisine": "japanese",
        "insertedAtTimestamp": "1771451095.1331036"
    },
    {
        "BusinessID": "OFfZUS-nu6NDnsWe1B2bUQ",
        "Name": "Tonchin",
        "Address": "13 W 36th St New York, NY 10018",
        "Coordinates": {
            "latitude": 40.7502727,
            "longitude": -73.9844951
        },
        "NumberOfReviews": 2481,
        "Rating": 4.4,
        "ZipCode": "10018",
        "Cuisine": "japanese",
        "insertedAtTimestamp": "1771451095.1331036"
    },
    {
        "BusinessID": "YC-wGlO0oOkEIaCEDZv-ag",
        "Name": "Yakitori Totto",
        "Address": "251 W 55th St Fl 2 New York, NY 10019",
        "Coordinates": {
            "latitude": 40.765375,
            "longitude": -73.983114
        },
        "NumberOfReviews": 1535,
        "Rating": 4.0,
        "ZipCode": "10019",
        "Cuisine": "japanese",
        "insertedAtTimestamp": "1771451095.1331036"
    },
    {
        "BusinessID": "l_RAv09V67j-Hm9dyZxWhw",
        "Name": "Tomi Jazz",
        "Address": "239 E 53rd St New York, NY 10022",
        "Coordinates": {
            "latitude": 40.75725,
            "longitude": -73.96774
        },
        "NumberOfReviews": 956,
        "Rating": 4.4,
        "ZipCode": "10022",
        "Cuisine": "japanese",
        "insertedAtTimestamp": "1771451095.1331036"
    },
    {
        "BusinessID": "rp0cBF6y058ENV6oBSDeFQ",
        "Name": "Catzuneko Shokudo",
        "Address": "518 9th Ave New York, NY 10018",
        "Coordinates": {
            "latitude": 40.756273752239274,
            "longitude": -73.99394420000002
        },
        "NumberOfReviews": 44,
        "Rating": 4.8,
        "ZipCode": "10018",
        "Cuisine": "japanese",
        "insertedAtTimestamp": "1771451095.1331036"
    },
    {
        "BusinessID": "6lUsFj0KCao678o9L7QwUw",
        "Name": "Hatsuhana",
        "Address": "17 E 48th St New York, NY 10017",
        "Coordinates": {
            "latitude": 40.75703,
            "longitude": -73.97692
        },
        "NumberOfReviews": 1657,
        "Rating": 4.2,
        "ZipCode": "10017",
        "Cuisine": "japanese",
        "insertedAtTimestamp": "1771451095.1331036"
    },
    {
        "BusinessID": "0UeCicK8Vs7WM_xZynH7ng",
        "Name": "Mikado",
        "Address": "800 Lexington Ave New York, NY 10065",
        "Coordinates": {
            "latitude": 40.764056,
            "longitude": -73.967181
        },
        "NumberOfReviews": 176,
        "Rating": 4.5,
        "ZipCode": "10065",
        "Cuisine": "japanese",
        "insertedAtTimestamp": "1771451095.1331036"
    },
    {
        "BusinessID": "HZWHBfeuP4Fb6y8b8uqnbA",
        "Name": "Sushi Yasaka",
        "Address": "251 W 72nd St New York, NY 10023",
        "Coordinates": {
            "latitude": 40.779583,
            "longitude": -73.983482
        },
        "NumberOfReviews": 2149,
        "Rating": 4.2,
        "ZipCode": "10023",
        "Cuisine": "japanese",
        "insertedAtTimestamp": "1771451095.1331036"
    },
    {
        "BusinessID": "XXzfCImkzzU85Gl3O38THg",
        "Name": "Lin & Daughters",
        "Address": "55 W 26th St New York, NY 10010",
        "Coordinates": {
            "latitude": 40.74468355150053,
            "longitude": -73.9908534326635
        },
        "NumberOfReviews": 17,
        "Rating": 4.8,
        "ZipCode": "10010",
        "Cuisine": "japanese",
        "insertedAtTimestamp": "1771451095.1331036"
    },
    {
        "BusinessID": "-J8VuX3wGrYSOBu2G0hMsw",
        "Name": "Katsu-Hama",
        "Address": "11 E 47th St New York, NY 10017",
        "Coordinates": {
            "latitude": 40.7564659118652,
            "longitude": -73.9775238037109
        },
        "NumberOfReviews": 1824,
        "Rating": 4.0,
        "ZipCode": "10017",
        "Cuisine": "japanese",
        "insertedAtTimestamp": "1771451095.1331036"
    },
    {
        "BusinessID": "cYFWtHIlqnsx_jOtikSWSA",
        "Name": "Ume",
        "Address": "1154 1st Ave New York, NY 10065",
        "Coordinates": {
            "latitude": 40.76232396534527,
            "longitude": -73.95977846461652
        },
        "NumberOfReviews": 54,
        "Rating": 4.4,
        "ZipCode": "10065",
        "Cuisine": "japanese",
        "insertedAtTimestamp": "1771451095.1331036"
    },
    {
        "BusinessID": "qm1J_dPA5IHij1oAnoZwHw",
        "Name": "nonono",
        "Address": "118 Madison Ave New York, NY 10016",
        "Coordinates": {
            "latitude": 40.7454249232575,
            "longitude": -73.98495069501593
        },
        "NumberOfReviews": 1368,
        "Rating": 4.3,
        "ZipCode": "10016",
        "Cuisine": "japanese",
        "insertedAtTimestamp": "1771451095.1331036"
    },
    {
        "BusinessID": "Weq9PsmlligV6f9lhhbqiw",
        "Name": "Mikiya Wagyu Shabu House",
        "Address": "954 2nd Ave New York, NY 10022",
        "Coordinates": {
            "latitude": 40.755089,
            "longitude": -73.96798
        },
        "NumberOfReviews": 130,
        "Rating": 4.4,
        "ZipCode": "10022",
        "Cuisine": "japanese",
        "insertedAtTimestamp": "1771451095.1331036"
    },
    {
        "BusinessID": "cT48RskMO_o35Ua0tlifyQ",
        "Name": "Heno Heno",
        "Address": "358 W 46th St New York, NY 10036",
        "Coordinates": {
            "latitude": 40.760512,
            "longitude": -73.990117
        },
        "NumberOfReviews": 234,
        "Rating": 4.3,
        "ZipCode": "10036",
        "Cuisine": "japanese",
        "insertedAtTimestamp": "1771451095.1331036"
    },
    {
        "BusinessID": "P7ESDIjeuFeLF0hZ0V_yIQ",
        "Name": "Raku",
        "Address": "776 9th Ave New York, NY 10019",
        "Coordinates": {
            "latitude": 40.76445665255147,
            "longitude": -73.987833
        },
        "NumberOfReviews": 153,
        "Rating": 4.5,
        "ZipCode": "10019",
        "Cuisine": "japanese",
        "insertedAtTimestamp": "1771451095.1331036"
    },
    {
        "BusinessID": "5deTGZyJXGo7UFzUMD1dWQ",
        "Name": "Izakaya Futago",
        "Address": "211 E 43rd St New York, NY 10017",
        "Coordinates": {
            "latitude": 40.751235967934704,
            "longitude": -73.97317588277238
        },
        "NumberOfReviews": 8,
        "Rating": 4.4,
        "ZipCode": "10017",
        "Cuisine": "japanese",
        "insertedAtTimestamp": "1771451095.1331036"
    },
    {
        "BusinessID": "eQ4QUGvuHGBzsOrphsVc6A",
        "Name": "Kimura",
        "Address": "31 St Marks Pl New York, NY 10003",
        "Coordinates": {
            "latitude": 40.72904325062745,
            "longitude": -73.9882174
        },
        "NumberOfReviews": 534,
        "Rating": 4.5,
        "ZipCode": "10003",
        "Cuisine": "japanese",
        "insertedAtTimestamp": "1771451095.1331036"
    },
    {
        "BusinessID": "_IkMfWpOkQXRZtJAYJUJIw",
        "Name": "Hama Japanese Cuisine",
        "Address": "11 W 51st St New York, NY 10019",
        "Coordinates": {
            "latitude": 40.7597846984863,
            "longitude": -73.9776382446289
        },
        "NumberOfReviews": 490,
        "Rating": 4.0,
        "ZipCode": "10019",
        "Cuisine": "japanese",
        "insertedAtTimestamp": "1771451095.1331036"
    },
    {
        "BusinessID": "-0qjd1capMU0UxJmvLxiIg",
        "Name": "Imasa Nori Sushi Izakaya",
        "Address": "243 W 54th St New York, NY 10019",
        "Coordinates": {
            "latitude": 40.76458580764928,
            "longitude": -73.9832909444271
        },
        "NumberOfReviews": 137,
        "Rating": 4.4,
        "ZipCode": "10019",
        "Cuisine": "japanese",
        "insertedAtTimestamp": "1771451095.1331036"
    },
    {
        "BusinessID": "D6ZEcG1FCZ18nekMWrhgMg",
        "Name": "Wokuni",
        "Address": "327 Lexington Ave New York, NY 10016",
        "Coordinates": {
            "latitude": 40.7492189,
            "longitude": -73.9773529
        },
        "NumberOfReviews": 467,
        "Rating": 4.1,
        "ZipCode": "10016",
        "Cuisine": "japanese",
        "insertedAtTimestamp": "1771451095.1331036"
    },
    {
        "BusinessID": "02hpl5b184L-df8sUq2cHA",
        "Name": "Matsuzuki Sakura",
        "Address": "2-23 50th Ave Queens, NY 11101",
        "Coordinates": {
            "latitude": 40.74347,
            "longitude": -73.95747
        },
        "NumberOfReviews": 4,
        "Rating": 4.8,
        "ZipCode": "11101",
        "Cuisine": "japanese",
        "insertedAtTimestamp": "1771451095.1331036"
    },
    {
        "BusinessID": "OLSSJIp8pu5UlugTF7tuHA",
        "Name": "Ootoya Chelsea",
        "Address": "8 W 18th St New York, NY 10011",
        "Coordinates": {
            "latitude": 40.73881,
            "longitude": -73.99279
        },
        "NumberOfReviews": 1614,
        "Rating": 4.1,
        "ZipCode": "10011",
        "Cuisine": "japanese",
        "insertedAtTimestamp": "1771451095.1331036"
    },
    {
        "BusinessID": "q8RbIJNdxYLDt92pN8Bl1A",
        "Name": "Suki Desu",
        "Address": "217 E 85th St New York, NY 10028",
        "Coordinates": {
            "latitude": 40.777934,
            "longitude": -73.953438
        },
        "NumberOfReviews": 55,
        "Rating": 4.4,
        "ZipCode": "10028",
        "Cuisine": "japanese",
        "insertedAtTimestamp": "1771451095.1331036"
    },
    {
        "BusinessID": "K60mCt7NyF2u_EBZBh8ZGw",
        "Name": "Tenjou",
        "Address": "25 W 23rd St New York, NY 10010",
        "Coordinates": {
            "latitude": 40.74218671440042,
            "longitude": -73.9904711
        },
        "NumberOfReviews": 139,
        "Rating": 4.5,
        "ZipCode": "10010",
        "Cuisine": "japanese",
        "insertedAtTimestamp": "1771451095.1331036"
    },
    {
        "BusinessID": "zHsK9YUH3lv8VlQEAPw6gA",
        "Name": "Tabata Japanese Restaurant & Yakitori Bar",
        "Address": "1435 2nd Ave New York, NY 10021",
        "Coordinates": {
            "latitude": 40.770684,
            "longitude": -73.957302
        },
        "NumberOfReviews": 84,
        "Rating": 4.5,
        "ZipCode": "10021",
        "Cuisine": "japanese",
        "insertedAtTimestamp": "1771451095.1331036"
    },
    {
        "BusinessID": "PTYUAAJbEmvIv4EsyRrcnA",
        "Name": "Momoya",
        "Address": "427 Amsterdam Ave New York, NY 10024",
        "Coordinates": {
            "latitude": 40.784043,
            "longitude": -73.977391
        },